LOCATION_lat,LOCATION_lng,query,LOCATION_type,version,LOCATION_name,similarity_locs,dist_km
-17.44681203,-113.16478854,-17.44681203;-113.16478854,coordinates,20231103,,,
-37.88937865,144.69351204677758,-37.88937865;144.69351204677758,coordinates,20231103,"The University of Melbourne, Werribee Campus, 250, Princes Highway, Werribee, Melbourne, City of Wyndham, Victoria, 3030, Australia",,
-38.43481065779206,144.96899720789477,-38.43481065779206;144.96899720789477,coordinates,20231103,"Meakins Road, Flinders, Melbourne, Shire of Mornington Peninsula, Victoria, Australia",,
-40.940944,173.874694,-40.940944;173.874694,coordinates,20231103,"Marlborough, New Zealand",,
0.0515,37.6456,0.0515N;37.6456E,coordinates,2024,"Embu-Meru Highway, Meru, Imenti North, Meru County, Eastern, 60200, Kenya",,
0.0558150999999999,34.5423028,0.0558151N;34.542302800000016E,coordinates,20210623,"Sagam, C672, Mahanga A, East Gem ward, Gem, Siaya County, Nyanza, Kenya",,
0.0558151,34.5423028,0.0558151N;34.54230280E,coordinates,20231103,"Sagam, C672, Mahanga A, East Gem ward, Gem, Siaya County, Nyanza, Kenya",,
0.05,34.54,0.05N;34.54E,coordinates,20210623,"East Gem ward, Gem, Siaya County, Kenya",,
-0.1138,-74.465,0.1138S;74.4650W,coordinates,20210623,"Puerto Leguízamo, Putumayo, RAP Amazonía, Colombia",,
-0.18,-78.47,0.18S;78.47W,coordinates,20210623,"Diego Noboa, Barrio Batán Alto, Iñaquito, Quito, Quito Canton, Pichincha, 170515, Ecuador",,
0.19,32.35,0.19N;32.35E,coordinates,20231103,"Senene Buzingu, Mpigi, Central Region, Uganda",,
0.21,-78.7,0.21N;78.7W,coordinates,2024,"Vista Hermosa, Gualea, Quito Canton, Pichincha, Ecuador",,
0.2746,34.7608,0.2746N;34.7608E,coordinates,20231103,"Kakamega Provincial General Hospital, P.O. Box 15, Hospital Road, Kakamega, Lurambi, Kakamega County, Western, 50100, Kenya",,
0.337786,32.57555,0.337786N;32.575550E,coordinates,2024,"Mulago National Referal Hospital, Upper Mulago Hill Road, Mulago, Kawempe, Kampala, Central Region, Uganda",,
0.3411,32.5769,0.3411N;32.5769E,coordinates,2024,"Mulago National Referal Hospital, Upper Mulago Hill Road, Mulago, Kawempe, Kampala, Central Region, Uganda",,
-0.4371,36.958,0.4371S;36.9580E,coordinates,2024,"C70, Nyeri, Nyeri Central, Nyeri, Central Kenya, 10100, Kenya",,
-0.4532,39.6461,0.4532S;39.6461E,coordinates,2024,"Garissa-Dadaab Road, Garissa, Garissa Township, Garissa, North Eastern, Kenya",,
-0.5669,34.9341,0.5669S;34.9341E,coordinates,2024,"Nyamira Township ward, Nyamira South, Nyamira County, Nyanza, 40500, Kenya",,
-0.6773,34.7796,0.6773S;34.7796E,coordinates,2024,"Kisii, Kisii Central, Kisii County, Nyanza, Kenya",,
0.69,2.25,0.69N;2.25E,coordinates,20210623,,,
0.941799,104.056429,0.941799N;104.056429E,coordinates,20210623,"Pantai P.Stokok, Pulau Setokok, Batam City, Riau Islands, Sumatra, Indonesia",,
1.0857,-77.6186,1.0857N;77.6186W,coordinates,20210623,"Carrera 13, PLAZA MERCADO CENTRAL, Túquerres, La Sabana, Nariño, RAP Pacífico, Colombia",,
1.12,-77.16,1.12N;77.16W,coordinates,20210623,"Motilon, Pasto, Centro, Nariño, RAP Pacífico, Colombia",,
-1.1748,36.8304,1.1748S;36.8304E,coordinates,2024,"GK Kiambu Prisons, Boma Road, Edenville, Indian Bazaar, Kiambu Township ward, Kiambu Town, Kiambu, Central Kenya, 00900, Kenya",,
1.28,103.83,1.28N;103.83E,coordinates,20231103,"Central Expressway, Radin Mas, Bukit Merah, Central, Singapore, 169545, Singapore",,
1.2904,103.7764,1.2904N;103.7764E,coordinates,20231103,"348L, Heng Mui Keng Terrace, Queenstown, Southwest, Singapore, 119614, Singapore",,
-1.2921,36.8219,1.2921S;36.8219E,coordinates,2024,"Haile Selassie Avenue, City Square, City Square sublocation, Starehe location, Nairobi, CBD division, Starehe, Nairobi County, Nairobi, 40476, Kenya",,
1.2941,103.783,1.2941N;103.7830E,coordinates,20210623,"National University Hospital, Lower Kent Ridge Road, Queenstown, Southwest, Singapore, 119082, Singapore",,
1.295194,103.763806,1.295194N;103.763806E,coordinates,20210623,"West Coast Highway, Queenstown, Southwest, Singapore, 126784, Singapore",,
1.2951,103.7828,1.2951N;103.7828E,coordinates,20210623,"Health & U, Medical Drive, Queenstown, Southwest, Singapore, 117597, Singapore",,
1.295333,103.763667,1.295333N;103.763667E,coordinates,20210623,"West Coast Highway, Queenstown, Southwest, Singapore, 126784, Singapore",,
1.295472,103.763972,1.295472N;103.763972E,coordinates,20210623,"West Coast Highway, Queenstown, Southwest, Singapore, 126784, Singapore",,
1.295556,103.763917,1.295556N;103.763917E,coordinates,20210623,"West Coast Highway, Queenstown, Southwest, Singapore, 126784, Singapore",,
1.29555,103.76398,1.29555N;103.76398E,coordinates,20210623,"West Coast Highway, Queenstown, Southwest, Singapore, 126784, Singapore",,
1.312083,103.847306,1.312083N;103.847306E,coordinates,20210623,"Hertford Road, Kallang, Central, Singapore, 219248, Singapore",,
1.3188,103.7708,1.3188N;103.7708E,coordinates,20231103,"Ulu Pandan Park Connector, Faber Crest, Clementi, Southwest, Singapore, 120211, Singapore",,
1.3213,103.8458,1.3213N;103.8458E,coordinates,20210623,"HealthCity Novena, Sinaran Drive, Novena, Central, Singapore, 308142, Singapore",,
-1.3345,36.7331,1.3345S;36.7331E,coordinates,2024,"Hillcrest Elementary School, Hillcrest Road, Karen C, Karen ward, Lang'ata, Nairobi, Nairobi County, Nairobi, 00517, Kenya",,
1.3521,103.8198,1.3521N;103.8198E,coordinates,20210623,"MacRitchie Nature Trail, Central Water Catchment, Central, Singapore, 577937, Singapore",,
1.354111,103.924583,1.354111N;103.924583E,coordinates,20210623,"Fishermans Path, Paya Lebar, Singapore, Northeast, 529781, Singapore",,
1.4,103.89,1.40N;103.89E,coordinates,20231103,"338C, Anchorvale Crescent, Anchorvale, Seng Kang, Singapore, Northeast, 543338, Singapore",,
1.4126,103.9577,1.4126N;103.9577E,coordinates,20231103,"Jalan Wat Siam, North-Eastern Islands, Singapore, Southeast, 508309, Singapore",,
1.421583,103.955722,1.421583N;103.955722E,coordinates,20210623,"Jalan Wat Siam, North-Eastern Islands, Singapore, Southeast, 508309, Singapore",,
1.4256,94.3364,1.4256N;94.3364E,coordinates,20210623,,,
-1.44097,-48.48073,1.44097S;48.480729999999994W,coordinates,20210623,"Santa Casa de Misericórdia do Pará, Rua Oliveira Belo, Umarizal, Belém, Região Geográfica Imediata de Belém, Região Geográfica Intermediária de Belém, Pará, North Region, 66050-380, Brazil",,
-1.44097,-48.48072999,1.44097S;48.48072999W,coordinates,20231103,"Santa Casa de Misericórdia do Pará, Rua Oliveira Belo, Umarizal, Belém, Região Geográfica Imediata de Belém, Região Geográfica Intermediária de Belém, Pará, North Region, 66050-380, Brazil",,
-1.4529070375052602,-48.4004602432469,1.4529070375052584S;48.400460243246926W,coordinates,20210623,"Curió-Utinga, Entroncamento, Belém, Região Geográfica Imediata de Belém, Região Geográfica Intermediária de Belém, Pará, North Region, 66610-840, Brazil",,
-1.45290703,-48.40046024,1.45290703S;48.40046024W,coordinates,20231103,"Curió-Utinga, Entroncamento, Belém, Região Geográfica Imediata de Belém, Região Geográfica Intermediária de Belém, Pará, North Region, 66610-840, Brazil",,
-1.5177,37.2634,1.5177S;37.2634E,coordinates,2024,"Chumvi-Machakos-Kitui Road, Machakos Central ward, Machakos Town, Machakos County, Eastern, Kenya",,
1.56448,104.253943,1.56448N;104.253943E,coordinates,20210623,"Lotus Desaru Beach Resort, Persiaran Pantai, Desaru, Bandar Penawar, Kota Tinggi, Johor, 81930, Malaysia",,
1.79,-78.79,1.79N;78.79W,coordinates,20210623,"Carrera 36, Nueva Floresta, Tumaco, Pacífico Sur, Nariño, RAP Pacífico, Colombia",,
-1.8312,-78.1834,1.8312S;78.1834W,coordinates,20210623,"Pablo VI, Pablo Sexto, Morona Santiago, Ecuador",,
-1.8421,36.7919,1.8421S;36.7919E,coordinates,2024,"Old Toroto, Nairobi-Namanga Road, Dalalekutuk ward, Kajiado Central, Rift Valley, Kenya",,
-1.944,36.252,1.944S;36.252E,coordinates,2024,"Magadi, Magadi ward, Kajiado West, Kajiado County, Rift Valley, Kenya",,
10.07,-83.63,10.07N;83.63W,coordinates,20210623,"Calle Ojo de Agua, Las Lomas, Florida, Cantón Siquirres, Limón Province, 70303, Costa Rica",,
10.24,-75.3,10.24N;75.30W,coordinates,20210623,"Via Arjona - San Estanislao (Arenal), Arjona, Dique, Bolívar, RAP Caribe, 131020, Colombia",,
10.4,-75.48,10.40N;75.48W,coordinates,20210623,"13 de Junio, Cartagena, Dique, Bolívar, RAP Caribe, 130010, Colombia",,
10.4313,-84.0072,10.4313N;84.0072W,coordinates,20210623,"CES, La Virgen, Cantón Sarapiquí, Heredia Province, 41002, Costa Rica",,
10.5,-66.9167,10.5000N;66.9167W,coordinates,20210623,"Quinta Crespo, Caracas, Parroquia Santa Teresa, Municipio Libertador, Capital District, 1014, Venezuela",,
10.5666667,-75.5166667,10.5666667N;75.5166667W,coordinates,20210623,"Centro Cultural La Providencia, Vía Punta de Canoa, Punta de Canoa, Cartagena, Dique, Bolívar, RAP Caribe, 130007, Colombia",,
10.596667,122.931111,10.596667N;122.931111E,coordinates,20231103,"Sum-ag, Bacolod-2, Bacolod, Western Visayas, Philippines",,
10.7202,122.5621,10.7202N;122.5621E,coordinates,20231103,"Comisión Civil Street, San Pedro, Jaro, Iloilo City, Western Visayas, 5000, Philippines",,
10.7493,106.6778,10.7493N;106.6778E,coordinates,20210623,"Viện Y tế Công cộng TP.HCM, 159, Hưng Phú, Ward 8, District 8, Ho Chi Minh City, 73009, Vietnam",,
10.76805,106.669393,10.768050N;106.669393E,coordinates,20210623,"Children's Hospital 1, 532, Đường Lý Thái Tổ, Ward 10, District 10, Ho Chi Minh City, 72000, Vietnam",,
10.7742,106.6814,10.7742N;106.6814E,coordinates,20231103_v2,"Bệnh viện Bình Dân, Ðường Số 5, Ward 4, District 3, Ho Chi Minh City, 72406, Vietnam",,
10.77,106.68,10.77N;106.68E,coordinates,20210623,"Bàn Cờ, Ward 3, District 3, Ho Chi Minh City, 72406, Vietnam",,
10.7811,106.7028,10.7811N;106.7028E,coordinates,20231103_v2,"Children's Hospital No 2, 14, Ly Tu Trong Street, Ben Nghe Ward, District 1, Ho Chi Minh City, 77000, Vietnam",,
10.804412,106.694269,10.804412N;106.694269E,coordinates,20210623,"Bệnh viện Nhân dân Gia Định, Phan Đang Luu, Phường 7, Binh Thanh District, Ho Chi Minh City, 72317, Vietnam",,
10.805499,106.694308,10.805499N;106.694308E,coordinates,20210623,"Hẻm 5 Đường Nơ Trang Long, Phường 7, Binh Thanh District, Ho Chi Minh City, 72317, Vietnam",,
10.82777778,78.81361111,10.82777778N;78.81361111E,coordinates,20231103,"Thogur, Thiruvaiyaru, Thanjavur District, Tamil Nadu, 621601, India",,
10.82,106.62,10.82N;106.62E,coordinates,20210623,"Phường Tân Thới Nhất, District 12, Ho Chi Minh City, 71509, Vietnam",,
10.866,-1.0792,10.866N;1.0792W,coordinates,20231103,"Kassena-Nankana Municipal District, Upper East Region, Ghana",,
-10.98,-77.11,10.98S;77.11W,coordinates,20210623,"Cochacalla, Cochamarca, Province of Oyón, Lima, Peru",,
-11.24,66.25,11.24S;66.25E,coordinates,2024,,,
11.2,142.2,11.2N;142.2E,coordinates,20210623,,,
11.327,142.188,11.327N;142.188E,coordinates,20231103,,,
11.33,142.2,11.33N;142.2E,coordinates,20210623,,,
11.353,76.7959,11.3530N;76.7959E,coordinates,20210623,"Bedford, Coonoor, Nilgiris District, Tamil Nadu, 643101, India",,
11.37,142.34,11.37N;142.34E,coordinates,20231103,,,
11.38,142.5,11.38N;142.5E,coordinates,20231103,,,
-11.4816,-37.933601,11.481600S;37.933601W,coordinates,20210623,"BA-396, Rio Real, Região Geográfica Imediata de Alagoinhas, Região Geográfica Intermediária de Salvador, Bahia, Northeast Region, Brazil",,
11.52,-15.36,11.52N;15.36W,coordinates,20231103,"Sector de Empada, Quinara Region, South, Guinea-Bissau",,
11.5564,104.9282,11.5564N;104.9282E,coordinates,20210623,"Independence Monument, Independence Monument Roundabout, Sangkat Boeng Keng Kang Ti Muoy, Khan Boeng Keng Kang, Phnom Penh, 120102, Cambodia",,
11.576004,104.899048,11.576004N;104.899048E,coordinates,20210623,"Ministry of Health, Samdach Penn North Street (Street 289), Sangkat Phsar Depou Ti Muoy, Khan Toul Kork, Phnom Penh, 120401, Cambodia",,
11.5869,141.8755,11.5869N;141.8755E,coordinates,20210623,,,
-11.7291,-49.0686,11.7291S;49.0686W,coordinates,20210623,"Rua Presidente Getulio Vargas, Jardim Eldorado, Gurupi, Região Geográfica Imediata de Gurupi, Região Geográfica Intermediária de Gurupi, Tocantins, North Region, 77402-090, Brazil",,
-11.7292,-49.0686,11.7292S;49.0686W,coordinates,2024,"Rua Presidente Getulio Vargas, Jardim Eldorado, Gurupi, Região Geográfica Imediata de Gurupi, Região Geográfica Intermediária de Gurupi, Tocantins, North Region, 77402-090, Brazil",,
-11.75,-49.05,11.75S;49.05W,coordinates,20210623,"Gurupi, Região Geográfica Imediata de Gurupi, Região Geográfica Intermediária de Gurupi, Tocantins, North Region, 77410-540, Brazil",,
11.8037,-15.1804,11.8037N;15.1804W,coordinates,20210623,"Sector de Fulacunda, Quinara Region, South, Guinea-Bissau",,
11.81895,79.51495,11.81895N;79.51495E,coordinates,20210623,"Panruti, Cuddalore District, Tamil Nadu, 607108, India",,
11.0,107.0,11N;107E,coordinates,20210623,"Xã Bình Minh, Trảng Bom District, Đồng Nai Province, Vietnam",,
-12.024547,-77.056496,12.024547S;77.056496W,coordinates,20210623,"Universidad Peruana Cayetano Heredia - Campo central, 430, Avenida Honorio Delgado, Urbanización Ingeniería, San Martín de Porres, Province of Lima, Lima Metropolitan Area, Lima, 15102, Peru",,
-12.03,-77.02,12.03S;77.02W,coordinates,20210623,"Túnel Santa Rosa, San Juan de Lurigancho, Province of Lima, Lima Metropolitan Area, Lima, 15093, Peru",,
-12.0424038,-77.0994483,12.0424038S;77.0994483W,coordinates,20210623,"Politécnico Nacional de Varones del Callao, Elmer Faucett Avenue, 25 de Febrero, Carmen de La Legua-Reynoso, Callao, Constitutional Province of Callao, 07026, Peru",,
-12.1145506,-76.998487,12.1145506S;76.998487W,coordinates,20210623,"Calle Da Vinci, La Calera de la Merced, Surquillo, Province of Lima, Lima Metropolitan Area, Lima, 15038, Peru",,
12.13333,-103.93333,12.13333N;103.93333W,coordinates,20210623,,,
-12.23,-77.8472,12.230S;77.8472W,coordinates,20210623,Peru,,
12.25,109.199,12.250;109.199,coordinates,20210623,"Tran Phu Street, Xương Huân, Nha Trang, Khánh Hòa Province, 65000, Vietnam",,
12.25,109.199,12.250N;109.199E,coordinates,20210623,"Tran Phu Street, Xương Huân, Nha Trang, Khánh Hòa Province, 65000, Vietnam",,
12.25,109.19,12.25N;109.19E,coordinates,20210623,"Yết Kiêu, Vạn Thắng, Nha Trang, Khánh Hòa Province, 65000, Vietnam",,
12.3,135.5,12.3N;135.5E,coordinates,20231103,,,
12.4097538201049,78.8296588789063,12.409753820104937N;78.82965887890634E,coordinates,20210623,"Chengam, Tiruvannamalai District, Tamil Nadu, India",,
12.40975382,78.82965887,12.40975382N;78.82965887E,coordinates,20231103,"Chengam, Tiruvannamalai District, Tamil Nadu, India",,
12.466689,102.136043,12.466689N;102.136043E,coordinates,20210623,"3149, Phlio, Kwian Hak, Chanthaburi Province, Thailand",,
12.52,-7.34,12.52N;7.34W,coordinates,20231103,"Necko, Dioïla Cercle, Koulikoro, Mali",,
12.5648518,82.55469006619023,12.5648518;82.55469006619023,coordinates,2024,,,
-12.58,-38.3,12.58S;38.30W,coordinates,20231103,"Amado Bahia, Mata de São João, Região Geográfica Imediata de Salvador, Região Metropolitana de Salvador, Região Geográfica Intermediária de Salvador, Bahia, Northeast Region, 42850-000, Brazil",,
12.689,100.982,12.6890N;100.9820E,coordinates,20210623,"Queen Sirikit Naval Hospital, Sukhumvit Road, Khet Udomsak, Chon Buri Province, Thailand",,
12.71,-103.91,12.71N;103.91W,coordinates,20231103,,,
-12.8,45.2,12.80S;45.20E,coordinates,20210623,"Impasse Manga Chaidou, Rivière des Manguiers, Passamainty, Mamoudzou, Mayotte, 97605, France",,
12.8185,79.6947,12.8185N;79.6947E,coordinates,20210623,"Kanchipuram, Kancheepuram, Kanchipuram, Tamil Nadu, 631501, India",,
-12.83,45.14,12.83S;45.14E,coordinates,20210623,"D 1, Hapandzo, Coconi, Ouangani, Mayotte, 97670, France",,
12.9141,74.85600000000002,12.9141N;74.8560E,coordinates,20210623,"SH67, Kuntikan, Urva Store, Mangaluru, Mangaluru taluk, Dakshina Kannada, Karnataka, 575001, India",,
12.9165,79.13249999999991,12.9165N;79.13249999999994E,coordinates,20210623,"NH38, Vellore, Vellore District, Tamil Nadu, 632008, India",,
12.9165,79.1325,12.9165N;79.1325E,coordinates,20210623,"NH38, Vellore, Vellore District, Tamil Nadu, 632008, India",,
12.918503969265,79.138657450676,12.918503969265N;79.13865745067596E,coordinates,20210623,"Vellore, Vellore District, Tamil Nadu, 632012, India",,
12.91850396,79.13865745,12.91850396N;79.13865745E,coordinates,2024,"Vellore, Vellore District, Tamil Nadu, 632012, India",,
12.91,79.13,12.91N;79.13E,coordinates,20210623,"Vellore, Vellore District, Tamil Nadu, 632008, India",,
12.9202,79.1333,12.9202N;79.13329999999996E,coordinates,20210623,"Vellore, Vellore District, Tamil Nadu, 632008, India",,
12.9202,79.1333,12.9202N;79.1333E,coordinates,20210623,"Vellore, Vellore District, Tamil Nadu, 632008, India",,
12.9235,-85.8397,12.92350N;85.83970W,coordinates,20231103,"Barrio Damesio Blandon, San Ramón, San Ramón (Municipio), Matagalpa, 62100, Nicaragua",,
12.9246,79.1348,12.9246N;79.1348E,coordinates,20210623,"Christian Medical College Hospital, Ida Scudder Road, Sathuvachari, Vellore, Vellore District, Tamil Nadu, 632004, India",,
12.925471,79.133805,12.925471N;79.133805E,coordinates,20210623,"Christian Medical College Hospital, Ida Scudder Road, Sathuvachari, Vellore, Vellore District, Tamil Nadu, 632004, India",,
12.92,79.13,12.92N;79.13E,coordinates,20210623,"Vellore Fort, Fort Round Road, Vellore, Vellore District, Tamil Nadu, 632008, India",,
12.944149,80.207984,12.944149N;80.207984E,coordinates,20210623,"Balaji Dental college, Velachery Main Road, CMWSSB Division 188, Zone 14 Perungudi, Sholinganallur, Chennai District, Tamil Nadu, 601100, India",,
13.033618,80.24512800000002,13.033618N;80.245128E,coordinates,20210623,"Apollo Speciality Hospital - Block A, 320, Padma Complex, Anna Salai (Mount Road), Lotus Colony, Ward 122, Zone 9 Teynampet, Chennai, Chennai District, Tamil Nadu, 600035, India",,
13.035,5.22,13.035N;5.22E,coordinates,20210623,"Usmanu Danfodio University Teaching Hospital, Hospital Road, Guiwa, Arkilla, Wamako, Sokoto State, Nigeria",,
13.0631,80.2518,13.0631N;80.2518E,coordinates,20210623,"Apollo Hospital, Wallace Garden 1st Street, CMWSSB Division 111, Zone 9 Teynampet, Chennai, Chennai District, Tamil Nadu, 600001, India",,
13.06,103.12,13.06N;103.12E,coordinates,20210623,"Sangkat Ou Mal, Battambang Municipality, Battambang, 020106, Cambodia",,
13.17,0.63,13.17N;0.63E,coordinates,20231103,"Mansila, Yagha, Sahel, Burkina Faso",,
-13.2543,34.3015,13.2543S;34.3015E,coordinates,20210623,"Nkhotakota, Central Region, Malawi, Malawi",,
13.26668,79.88434000000002,13.26668N;79.88434E,coordinates,20210623,"Uthukottai, Uthukkottai, Thiruvallur District, Tamil Nadu, 602026, India",,
13.4432,-15.3101,13.4432N;15.3101W,coordinates,20210623,"Jarra East, Mansakonko, Lower River Division, The Gambia",,
13.45,101.6,13.45;101.6,coordinates,20231103,"ถนนสายบ้านกระบกคู่ - บ้านแปลง, หมู่ที่ 18, Tha Takiap, Chachoengsao Province, Thailand",,
13.4683626,2.1394935,13.4683626;2.1394935,coordinates,20231103,"Saga Goungou, Saga Sahara, Arrondissement Communal Niamey 4, Niamey, 5001, Niger",,
13.5283,99.8134,13.5283N;99.8134E,coordinates,20210623,"ถนนอำเภอ, Ratchaburi, Lum Din, Ratchaburi Province, 70000, Thailand",,
13.53,99.81,13.53N;99.81E,coordinates,20231103,"Ratchaburi, Lum Din, Ratchaburi Province, 70000, Thailand",,
13.6472,-1.6228,13.6472N;1.6228W,coordinates,20231103,"Bam, Central-North, Burkina Faso",,
13.6904,101.078,13.6904N;101.0780E,coordinates,20210623,"เทศบาลเมืองฉะเชิงเทรา, Theppharat, Chachoengsao Province, 24000, Thailand",,
13.69,99.83,13.69N;99.83E,coordinates,20231103,"Photharam, Khlong Ta Khot, Ratchaburi Province, 70120, Thailand",,
13.73257102,100.53685625,13.73257102N;100.53685625E,coordinates,20231103,"King Chulalongkorn Memorial Hospital, Ratchadamri Road, Sarasin, Pathum Wan Subdistrict, Pathum Wan District, Bangkok, 10330, Thailand",,
13.736717,100.523186,13.736717N;100.523186E,coordinates,20210623,"Ozone Hotel @ Samyan, 120, Soi Chulalongkorn 5, Sam Yan, Wang Mai Subdistrict, Pathum Wan District, Bangkok, 10330, Thailand",,
13.74,100.31,13.74N;100.31E,coordinates,2024,"Krathum Lom, Tha Talat, Nakhon Pathom Province, 73220, Thailand",,
13.7563,100.5018,13.7563N;100.5018E,coordinates,20210623,"Democracy Monument Circle, Dinso Road, Bowon Niwet Subdistrict, Phra Nakhon District, Bangkok, 10200, Thailand",,
13.757925,100.485849,13.757925N;100.485849E,coordinates,20210623,"2, Wang Lang Road, Wang Lang, Sirirat Subdistrict, Bangkok Noi District, Bangkok, 10700, Thailand",,
13.7579,100.4858,13.7579N;100.4858E,coordinates,20210623,"2, Wang Lang Road, Wang Lang, Sirirat Subdistrict, Bangkok Noi District, Bangkok, 10700, Thailand",,
-13.759029,-172.104629,13.759029S;172.104629W,coordinates,20231103,Samoa,,
13.75,100.48,13.75N;100.48E,coordinates,20210623,"Itsaraphap Road, บ้านช่างหล่อ, Ban Chang Lo Subdistrict, Bangkok Noi District, Bangkok, 10700, Thailand",,
13.75,100.5,13.75N;100.5E,coordinates,20210623,"Shell, Ti Thong Road, ชุมชนตรอกวิสูตร, Wat Ratchabophit Subdistrict, Phra Nakhon District, Bangkok, 10200, Thailand",,
13.766,100.5268,13.7660N;100.5268E,coordinates,20210623,"Rama VI Road, Thung Phaya Thai Subdistrict, Ratchathewi District, Bangkok, 10400, Thailand",,
13.766619,100.526786,13.766619N;100.526786E,coordinates,20210623,"Ramathibodi Hospital, Rama VI Road, Thung Phaya Thai Subdistrict, Ratchathewi District, Bangkok, 10400, Thailand",,
13.76,100.5,13.76N;100.50E,coordinates,20210623,"Wat Bowon Niwet Ratchaworawihan, 248, Tanao Road, Bowon Niwet Subdistrict, Phra Nakhon District, Bangkok, 10200, Thailand",,
13.76,100.53,13.76N;100.53E,coordinates,20231103,"Si Ayutthaya Road, Thung Phaya Thai Subdistrict, Ratchathewi District, Bangkok, 10400, Thailand",,
13.8199,100.0622,13.8199N;100.0622E,coordinates,20210623,"Thesa Road, Nakhon Pathom, ลำพยา, Nakhon Pathom Province, 73000, Thailand",,
-13.9626,33.7741,13.9626S;33.7741E,coordinates,20210623,"Kalumbu Road, Area15, Lilongwe, Central Region, Malawi, Malawi",,
13.974967,113.039217,13.974967N;113.039217E,coordinates,20231103,,,
14.02,100.61,14.02N;100.61E,coordinates,2024,"Khlong Nueng Subdistrict, Khlong Luang Town Municipality, Khlong Luang District, Pathum Thani Province, 12130, Thailand",,
14.0583,108.2772,14.0583N;108.2772E,coordinates,20210623,"Kon Dơng, Mang Yang District, Gia Lai Province, Vietnam",,
14.06,108.28,14.06N;108.28E,coordinates,20210623,"Kon Dơng, Mang Yang District, Gia Lai Province, Vietnam",,
-14.06,-75.73,14.06S;75.73W,coordinates,20210623,"I.E. Nº 132, Calle Callao, Urbanización María Auxiliadora, Ica, Province of Ica, Ica, 11001, Peru",,
14.15,102.95,14.15N;102.95E,coordinates,20231103,"Bantey Meanchey, Cambodia",,
14.166667000000002,121.21666667,14.166667N;121.21666667E,coordinates,20210623,"Ibarang Road, Timugan, Los Baños, Laguna, Calabarzon, 4030, Philippines",,
14.1667,121.2167,14.1667N;121.2167E,coordinates,20210623,"Ibarang Road, Timugan, Los Baños, Laguna, Calabarzon, 4030, Philippines",,
14.16,121.24,14.16N;121.24E,coordinates,20231103,"University of the Philippines Los Baños, Pedro R. Sandoval Avenue, Batong Malake, Los Baños, Laguna, Calabarzon, 4031, Philippines",,
-14.29,66.13,14.29S;66.13E,coordinates,2024,,,
14.4,-61.0,14.40N;61.00W,coordinates,20210623,"Martinique, France",,
14.5,-17.14,14.50N;17.14W,coordinates,2024,Senegal,,
14.6,121.02,14.60N;121.02E,coordinates,20210623,"Santo Niño Street, 508, Santa Mesa, Sixth District, Manila, Capital District, Metro Manila, 1016, Philippines",,
14.709,-17.455,14.709N;17.455W,coordinates,20231103,"Boulangerie Khadim Rassoul, Rue GD-24, Commune de Grand-Dakar, Arrondissement de Grand Dakar, Dakar, Dakar Region, 00000, Senegal",,
14.71189075,-16.48280869,14.71189075N;16.48280869W,coordinates,20231103,"Institut Supérieur de Formation Agricole et Rurale (ISFAR), N 3, Keur Yigo, Bambey Sérer, Bambey, Arrondissement de Lambaye, Département de Bambey, Diourbel Region, Senegal",,
14.778266699999998,-61.1448667,14.7782667N;61.144866699999966W,coordinates,20210623,"Notre Dame de Lourdes, Le Morne-Rouge, Saint-Pierre, Martinique, 97260, France",,
14.7782667,-61.14486669,14.7782667N;61.14486669W,coordinates,20231103,"Notre Dame de Lourdes, Le Morne-Rouge, Saint-Pierre, Martinique, 97260, France",,
14.833333,-17.233333,14.833333N;17.233333W,coordinates,20231103,"Déni Guedj, Commune de Tivaouane Peulh-Niaga, Arrondissement de Bambylor, Rufisque Department, Dakar Region, Senegal",,
14.9738,102.0837,14.9738N;102.0837E,coordinates,20231103,"Nakhon Ratchasima, Hua Thale, Nakhon Ratchasima Province, 30000, Thailand",,
-15.3214,-49.2539,15.3214S;49.2539W,coordinates,20231103_v2,"Goianésia, Região Geográfica Imediata de Ceres - Rialma - Goianésia, Região Geográfica Intermediária de Porangatu-Uruaçu, Goiás, Central-West Region, Brazil",,
15.3558802,-15.4829681,15.35588020N;15.48296810W,coordinates,20231103,"Dahra Djoloff, Département de Linguère, Louga Region, Senegal",,
15.42,104.95,15.42N;104.95E,coordinates,20210623,"Lao Suea Kok, Ubon Ratchathani Province, Thailand",,
15.4542,18.7322,15.4542N;18.7322E,coordinates,20210623,"Borkou, Chad",,
-15.46,35.01,15.46S;35.01E,coordinates,20210623,"Blantyre, Southern Region, Malawi, Malawi",,
15.509913,43.90435,15.509913N;43.90435E,coordinates,20231103,"Shibam Kaukaban, Shibam Kawkaban District, Al Mahwit Governorate, Yemen",,
-15.5223,-47.5432,15.5223S;47.5432W,coordinates,20210623,"DF-205, Planaltina, Região Geográfica Imediata do Distrito Federal, Região Integrada de Desenvolvimento do Distrito Federal e Entorno, Região Geográfica Intermediária do Distrito Federal, Federal District, Central-West Region, Brazil",,
15.5241,-88.0411,15.5241N;88.0411W,coordinates,2024,"Hospital Nacional Nor-Occidental Dr. Mario Catarino Rivas, 1a Calle, San Pedro Sula, Cortés, 21102, Honduras",,
-15.6551944,128.731361,15.6551944S;128.731361E,coordinates,20231103_v2,"Research Station Road, Kununurra, Shire Of Wyndham-East Kimberley, Western Australia, Australia",,
15.6982936,102.7040403,15.6982936N;102.7040403E,coordinates,20231103_v2,"Ban Hua Saphan, Ban Non Sawan, Khon Kaen Province, Thailand",,
15.7025938,102.7088682,15.7025938N;102.7088682E,coordinates,20231103_v2,"Ban Hua Saphan, Ban Non Sawan, Khon Kaen Province, Thailand",,
-15.740962,-47.881235,15.740962S;47.881235W,coordinates,20210623,"Universidade de Brasília - Campus Universitário Darcy Ribeiro - Gleba C, SQN 415, Asa Norte, Brasília, Plano Piloto, Região Geográfica Imediata do Distrito Federal, Região Integrada de Desenvolvimento do Distrito Federal e Entorno, Região Geográfica Intermediária do Distrito Federal, Federal District, Central-West Region, 70910-900, Brazil",,
-15.7709,-47.8736,15.7709S;47.8736W,coordinates,20231103,"Hospital Universitário de Brasília, SGAN - Quadra 606, SQN 406, Asa Norte, Brasília, Plano Piloto, Região Geográfica Imediata do Distrito Federal, Região Integrada de Desenvolvimento do Distrito Federal e Entorno, Região Geográfica Intermediária do Distrito Federal, Federal District, Central-West Region, 70840-901, Brazil",,
-15.783678,35.016929,15.783678S;35.016929E,coordinates,20210623,"Blantyre, Southern Region, Malawi, Malawi",,
15.87,100.9925,15.8700N;100.9925E,coordinates,20231103,"New Life Cafe, 193, พช.2027, Ban Khlong Takro, Ban Nong Chaeng, Ban Phot, Phetchabun Province, 42180, Thailand",,
15.894749,102.362395,15.894749N;102.362395E,coordinates,20231103_v2,"Ban Non Daeng, Khon Kaen Province, Thailand",,
15.9067655,102.3789304,15.9067655N;102.3789304E,coordinates,20231103_v2,"Ban Rattana Wadi, Kan Lueang, Khon Kaen Province, Thailand",,
15.9198718,102.396007,15.9198718N;102.3960070E,coordinates,20231103_v2,"Ban Non Thong, Kan Lueang, Khon Kaen Province, Thailand",,
15.97,105.22,15.97N;105.22E,coordinates,20210623,"Kham Pom, Ubon Ratchathani Province, Thailand",,
16.04771423,-61.56343841,16.04771423N;61.56343841W,coordinates,20231103_v2,"Groupe Scolaire Frédéric Joliot Curie, Rue de la République, Capesterre-Belle-Eau, Marquisat, Capesterre-Belle-Eau, Basse-Terre, Guadeloupe, 97130, France",,
16.05382,103.652004,16.05382N;103.652004E,coordinates,20231103,"Thewaphiban Road, Roi Et, Niwet, Roi Et Province, 45000, Thailand",,
16.056247,103.653095,16.056247N;103.653095E,coordinates,20231103,"Lower Walkway, Roi Et, Niwet, Roi Et Province, 45000, Thailand",,
-16.06,119.35,16.06S;119.35E,coordinates,20210623,,,
16.07,-91.45,16.07N;91.45W,coordinates,20210623,"Franja Transversal del Norte, Nueva Concepción, Río Seco, San Mateo Ixtatán, Huehuetenango, Guatemala",,
-16.15,-56.38,16.15S;56.38W,coordinates,20210623,"Nossa Senhora do Livramento, Região Geográfica Imediata de Cuiabá, Região Geográfica Intermediária de Cuiabá, Mato Grosso, Central-West Region, Brazil",,
16.1635,75.6172,16.1635N;75.6172E,coordinates,20210623,"Murnal, Simikeri, Bagalakote taluk, Bagalkote District, Karnataka, 587102, India",,
16.23231,-61.562878,16.23231N;61.562878W,coordinates,20210623,"Rue de la Chapelle, Zone Industrielle et Commerciale de Houëlbourg-Jarry, Baie-Mahault, Basse-Terre, Guadeloupe, 97122, France",,
16.235075,-61.563289,16.235075N;61.563289W,coordinates,20210623,"Rue de la Chapelle, Zone Industrielle et Commerciale de Houëlbourg-Jarry, Baie-Mahault, Basse-Terre, Guadeloupe, 97122, France",,
16.237101,-61.52553,16.237101N;61.52553W,coordinates,20210623,"Centre Hospitalier Universitaire Pointe-à-Pitre, Rocade de Pointe-à-Pitre, Sonis, Lafond, Les Abymes, Pointe-à-Pitre, Guadeloupe, 97183, France",,
16.2706436,-61.5057749,16.2706436N;61.5057749W,coordinates,20231103_v2,"Rue du Cimetière, Les Abymes, Dothémare, Les Abymes, Pointe-à-Pitre, Guadeloupe, 97139, France",,
-16.4048,-49.1518,16.4048S;49.1518W,coordinates,20210623,"Nerópolis, Região Geográfica Imediata de Goiânia, Região Geográfica Intermediária de Goiânia, Goiás, Central-West Region, Brazil",,
16.4243,101.1617,16.4243N;101.1617E,coordinates,20231103,"Phetchabun, Na Ngua, Phetchabun Province, 67000, Thailand",,
16.4314,103.5059,16.4314N;103.5059E,coordinates,20231103,"Kalasin, Lup, Kalasin Province, Thailand",,
16.439625,102.828728,16.439625N;102.828728E,coordinates,20231103,"Mittraphap Road, Thai Prasert 1 Village, Khon Kaen, Mueang Kao, Khon Kaen Province, 40000, Thailand",,
16.47,-92.54,16.47N;92.54W,coordinates,20231103,"Teopisca, Chiapas, Mexico",,
16.498212,102.96073,16.4982120N;102.9607300E,coordinates,20231103_v2,"Ban Nong Bua Noi, Nong Tum, Khon Kaen Province, Thailand",,
16.5213473,102.873389,16.5213473N;102.8733890E,coordinates,20231103_v2,"Ban Amphawan, Sila, Khon Kaen Province, Thailand",,
16.6111414,102.0574847,16.6111414N;102.0574847E,coordinates,20231103_v2,"Ban Pong Haeng, Nong Phai, Khon Kaen Province, 40290, Thailand",,
16.7005814,102.5143558,16.7005814N;102.5143558E,coordinates,20210623,"ขก.2025, Ban Sok Hang, Khon Kaen Province, Thailand",,
16.7531287,103.0913184,16.7531287N;103.0913184E,coordinates,20231103_v2,"2322, Ban Nong Waeng Peng, Nong No, Khon Kaen Province, 40170, Thailand",,
16.7553189,103.0911709,16.7553189N;103.0911709E,coordinates,20231103_v2,"P T, 2322, Ban Nong Waeng Peng, Nong No, Khon Kaen Province, 40170, Thailand",,
16.75,81.6,16.75N;81.6E,coordinates,20210623,"Kondapadu, Pentapadu, West Godavari, Andhra Pradesh, 543156, India",,
16.7788,96.149,16.7788N;96.1490E,coordinates,20210623,"Yangon General Hospital Emergency, Lanmadaw Road, Chinatown, Western District, Latha, Yangon West, Yangon, 11141, Myanmar",,
16.78,96.15,16.78N;96.15E,coordinates,20210623,"Basic Education High School No. 2 Latha, Bogyoke Aung San Road, Chinatown, Western District, Latha, Yangon West, Yangon, 11141, Myanmar",,
16.866069,96.195132,16.866069N;96.195132E,coordinates,20210623,"Latha hostel, 16, Pyi Tha Ya (2) Street, Eastern District, North Dagon, Yangon East, Yangon, 11090, Myanmar",,
16.8776,42.6162,16.87760N;42.61620E,coordinates,20210623,"King Faisal Road, Al Bashaer District, Al Karbus, Jazan, Jazan Province, 82721, Saudi Arabia",,
16.8776,42.6162,16.8776N;42.6162E,coordinates,2024,"King Faisal Road, Al Bashaer District, Al Karbus, Jazan, Jazan Province, 82721, Saudi Arabia",,
16.8,96.2,16.8N;96.2E,coordinates,20210623,"Anawmar Street 7, Thaketa, Southern District, Yangon, 11231, Myanmar",,
16.9412,42.6115,16.9412N;42.6115E,coordinates,2024,"King Abdulaziz Rd, An Noor District, Duhayqah, Jazan, Jazan Province, Saudi Arabia",,
-16.96157,125.87991,16.96157S;125.87991E,coordinates,20231103,"King Leopold Ranges, Shire Of Derby-West Kimberley, Western Australia, 6728, Australia",,
16.9,96.1,16.9N;96.1E,coordinates,20210623,"Northern District, Insein, Yangon, Yangon North, Yangon, 11111, Myanmar",,
17.3647,102.8159,17.3647N;102.8159E,coordinates,20231103,"Udon Thani Outer Ring Road, Ban Chan, Nong Khon Kwang, Udon Thani Province, Thailand",,
17.38,78.48,17.38N;78.48E,coordinates,20231103_v2,"Maharani Jhansi Road, Gowliguda, Ward 77 Jambagh, Greater Hyderabad Municipal Corporation Central Zone, Hyderabad, Nampally mandal, Hyderabad District, Telangana, 500095, India",,
17.47,106.62,17.47N;106.62E,coordinates,20210623,"Tran Hung Dao Road, Đồng Phú, Phường Đồng Phú, Đồng Hới, Quảng Bình Province, Vietnam",,
17.53,114.34,17.53N;114.34E,coordinates,20210623,,,
17.5707,-3.9962,17.5707N;3.9962W,coordinates,20210623,"Goundam Cercle, Taoudénit Region, Mali",,
-17.6780447200847,-44.8159790039063,17.67804472008466S;44.81597900390625W,coordinates,20210623,"Várzea da Palma, Região Geográfica Imediata de Pirapora, Região Geográfica Intermediária de Montes Claros, Minas Gerais, Southeast Region, Brazil",,
17.695872222393156,83.26353719433736,17.695872222393156;83.26353719433736,coordinates,2024,"Visakhapatnam, Visakhapatnam (Urban), Visakhapatnam, Andhra Pradesh, 530001, India",,
-17.7391,168.2636,17.7391S;168.2636E,coordinates,20210623,"Efalefale, Shefa Province, Vanuatu",,
-17.78,-63.18,17.78S;63.18W,coordinates,20210623,"Imprenta Agua Viva, 317, Calle Murillo, Barrio Máquina Vieja, Santa Cruz de la Sierra, Provincia Andrés Ibáñez, Santa Cruz, Bolivia",,
-17.80140275,25.1494876,17.80140275S;25.14948760E,coordinates,20231103,"Kasane Primary Hospital, President Avenue, Police House quarters, Kasane, Chobe District, Botswana",,
17.96246,102.61318,17.962460N;102.613180E,coordinates,20231103_v2,"Rue Mahosot, Nongchanh, Vientiane Capital, Sisattanak District, Vientiane Prefecture, 01006, Laos",,
18.1096,-77.2975,18.1096N;77.2975W,coordinates,20231103,"Clarendon, Middlesex County, Jamaica",,
18.15,-100.4,18.15000N;100.40000W,coordinates,20231103,"San Miguel Totolapan, Guerrero, Mexico",,
18.2167,109.467,18.2167N;109.4670E,coordinates,20210623,"Tianya District, Sanya City, Hainan Province, China",,
18.24,109.36,18.24N;109.36E,coordinates,20231103,"Tianya District, Sanya City, Hainan Province, China",,
18.24,-66.04,18.24N;66.04W,coordinates,20210623,"The Home Depot, Avenida Las Catalinas Mall, Parque Industrial Villa Blanca, Sector Viaducto, Barrio Pueblo, Caguas, Puerto Rico, 00725, United States",,
18.2855,99.5128,18.2855N;99.5128E,coordinates,20231103,"Phahon Yothin Road, พระบาท, Lampang, เทศบาลนครลำปาง, Phichai, Lampang Province, 52000, Thailand",,
18.428487,-97.396224,18.428487N;97.396224W,coordinates,20210623,"Calle Ignacio Allende Oriente, Tehuacán, Puebla, 75857, Mexico",,
18.44,-99.02,18.44N;99.02W,coordinates,20210623,"Calle 11 de Julio, Tlaquiltenango, Morelos, Mexico",,
18.46,-97.4,18.46N;97.40W,coordinates,20231103,"Calle 6 Sur, Tehuacán, Puebla, 75700, Mexico",,
18.48,98.55,18.48N;98.55E,coordinates,20210623,"Ban Huai Wok, Ban Klang, Chiang Mai Province, Thailand",,
18.510314,-69.914276,18.510314N;69.914276W,coordinates,20210623,"La Zurza, Santo Domingo, Distrito Nacional, 10502, Dominican Republic",,
-18.512178,-44.555031,18.512178S;44.555030999999985W,coordinates,20210623,"Corinto, Região Geográfica Imediata de Curvelo, Região Geográfica Intermediária de Belo Horizonte, Minas Gerais, Southeast Region, 74560-540, Brazil",,
-18.512178,-44.55503099,18.512178S;44.55503099W,coordinates,20231103_v2,"Corinto, Região Geográfica Imediata de Curvelo, Região Geográfica Intermediária de Belo Horizonte, Minas Gerais, Southeast Region, 74560-540, Brazil",,
18.513454,-69.899123,18.513454N;69.899123W,coordinates,20210623,"Simon Bolivar, Santo Domingo, Distrito Nacional, 10405, Dominican Republic",,
18.5139004,-69.89931429999999,18.5139004N;69.8993143W,coordinates,20210623,"Simon Bolivar, Santo Domingo, Distrito Nacional, 10405, Dominican Republic",,
-18.5441,-48.1544,18.5441S;48.1544W,coordinates,20210623,"Amanhece, Araguari, Região Geográfica Imediata de Uberlândia, Região Geográfica Intermediária de Uberlândia, Minas Gerais, Southeast Region, Brazil",,
18.552467,73.838082,18.552467N;73.838082E,coordinates,20210623,"Military Hospital ,Pune, Range Hills Road, Mandalay Lines, Khadki, Pune, Pune District, Maharashtra, 411020, India",,
-18.584322,-46.513153,18.584322S;46.51315299999999W,coordinates,20210623,"Rua Hermenegildo Pereira, São Francisco, Patos de Minas, Região Geográfica Imediata de Patos de Minas, Região Geográfica Intermediária de Patos de Minas, Minas Gerais, Southeast Region, 38700-044, Brazil",,
-18.6657,35.5296,18.6657S;35.5296E,coordinates,20210623,"Cheringoma, Sofala Province, Mozambique",,
18.688857,-99.119482,18.688857N;99.119482W,coordinates,20210623,"Calle 5 de Mayo, Tlaltizapan, Tlaltizapán de Zapata, Morelos, Mexico",,
18.7061,98.9817,18.7061N;98.9817E,coordinates,20210623,"Ban Wang Sing Kham, Don Kaeo, Saraphi District, Chiang Mai Province, Thailand",,
18.7673,100.7761,18.7673N;100.7761E,coordinates,20210623,"Nan, Du Tai, Nan Province, 55000, Thailand",,
18.7673,100.776,18.7673N;100.776E,coordinates,20210623,"Nan, Du Tai, Nan Province, 55000, Thailand",,
-18.787912,-56.158556,18.787912S;56.158556W,coordinates,20231103,"Nhecolândia, Corumbá, Região Geográfica Imediata de Corumbá, Região Geográfica Intermediária de Corumbá, Mato Grosso do Sul, Central-West Region, Brazil",,
18.79038,98.98468,18.79038N;98.98468E,coordinates,20210623,"Chiang Mai District Office, Khang Ruan Jum Road, Muang Chiang Mai, Chiang Mai, Pa Daet, Saraphi District, Chiang Mai Province, 55520, Thailand",,
18.793867,98.997116,18.793867N;98.997116E,coordinates,20231103,"The Food Trust CNX, 155/1, Ratchawong Road, Ban Wiphawadi, Chiang Mai, Pa Daet, Saraphi District, Chiang Mai Province, 50300, Thailand",,
18.796143,98.979263,18.796143N;98.979263E,coordinates,20231103,"Power Buy, Mani Noppharat Road, Chiang Mai, Pa Daet, Saraphi District, Chiang Mai Province, 55520, Thailand",,
18.813,115.83,18.813N;115.830E,coordinates,20231103,,,
-18.8556,16.3293,18.8556S;16.3293E,coordinates,20231103,"Oshikoto, Namibia",,
-18.8815815,-48.2599173,18.8815815S;48.259917299999984W,coordinates,20210623,"UFU - Campus Umuarama, Rua Acre, Umuarama, Setor Leste, Uberlândia, Região Geográfica Imediata de Uberlândia, Região Geográfica Intermediária de Uberlândia, Minas Gerais, Southeast Region, 38405-320, Brazil",,
-18.8816,-48.2599,18.8816S;48.2599W,coordinates,20210623,"UFU - Campus Umuarama, Rua Acre, Umuarama, Setor Leste, Uberlândia, Região Geográfica Imediata de Uberlândia, Região Geográfica Intermediária de Uberlândia, Minas Gerais, Southeast Region, 38405-320, Brazil",,
-18.9113,-48.2622,18.9113S;48.2622W,coordinates,20210623,"Avenida Governador Rondon Pacheco, Tibery, Setor Leste, Uberlândia, Região Geográfica Imediata de Uberlândia, Região Geográfica Intermediária de Uberlândia, Minas Gerais, Southeast Region, 38405-142, Brazil",,
18.92,-99.23,18.92N;99.23W,coordinates,20231103,"Avenida Atlacomulco, Centro, Cuernavaca, Morelos, 62410, Mexico",,
18.97,-99.08,18.97N;99.08W,coordinates,20231103,"Tepoztlán, Morelos, 62520, Mexico",,
18.99,-99.11,18.99N;99.11W,coordinates,20231103,"Calle Galeana, Tepoztlán, Morelos, 62520, Mexico",,
18.0,100.0,18N;100E,coordinates,20210623,"พร.3150, ปากปาน, Pong Pa Wai, Phrae Province, 54110, Thailand",,
18.0,-66.0,18N;66W,coordinates,20210623,"PR-757, Valle de Providencia, Pollos, Patillas, Puerto Rico, 00723, United States",,
19.02,-99.26,19.02N;99.26W,coordinates,20231103,"Huitzilac, Morelos, 62510, Mexico",,
-19.03133,15.54865,19.03133S;15.54865E,coordinates,20210623,"Omusati, Namibia",,
19.0335,72.8383,19.0335N;72.8383E,coordinates,20210623,"Hinduja Hospital, Swatantrya Veer Savarkar Marg, Rao Wadi, G/N Ward, Zone 2, Mumbai, Maharashtra, 400016, India",,
19.0335,72.83800000000002,19.0335N;72.838E,coordinates,20210623,"Hinduja Hospital, Swatantrya Veer Savarkar Marg, Rao Wadi, G/N Ward, Zone 2, Mumbai, Maharashtra, 400016, India",,
19.0344,-98.2447,19.0344N;98.2447W,coordinates,2024,"Hospital para el Niño Poblano, 5307, Boulevard del Niño Poblano, San Andrés Cholula, Puebla, 72190, Mexico",,
-19.03715,15.55367,19.03715S;15.55367E,coordinates,20210623,"Omusati, Namibia",,
19.03,-98.03,19.03N;98.03W,coordinates,2024,"Privada de Zempoala, Amozoc de Mota, San José la Laguna (Colonia del Rosario), Amozoc de Mota, Amozoc, Puebla, 72980, Mexico",,
19.03,-98.2,19.03N;98.20W,coordinates,20231103_v2,"Avenida Manuel Espinosa Yglesias, Municipio de Puebla, Puebla, 72534, Mexico",,
19.04,-98.2,19.04N;98.20W,coordinates,20210623,"Spanish Institute of Puebla, #10, Avenida 11 Oriente, Centro Histórico de Puebla, Municipio de Puebla, Puebla, 72000, Mexico",,
19.05198,72.829114,19.051980N;72.829114E,coordinates,20210623,"Mumbai Educational Trust, K C Marg, Vaidya Nagar, H/W Ward, Zone 3, Mumbai, Maharashtra, 400050, India",,
19.12,110.0,19.12N;110E,coordinates,20210623,"Zhongping, Qiongzhong Li and Miao Autonomous County, Hainan Province, China",,
19.13,72.91,19.13N;72.91E,coordinates,2024,"Indian Institute of Technology Bombay, Powai, Zone 6, Mumbai, Maharashtra, 400076, India",,
19.171,99.9067,19.1710N;99.9067E,coordinates,20231103,"Phahon Yothin Road, Phayao, Wiang Subdistrict, Tha Wang Thong, Mueang Phayao District, Phayao Province, 56000, Thailand",,
19.24,-99.9,19.24N;99.9W,coordinates,20210623,"Zinacantepec, State of Mexico, Mexico",,
19.25,-99.08,19.25N;99.08W,coordinates,2024,"Calle del Puente, Santa Cruz Acalpixca, Paraje Lila, Xochimilco, Mexico City, 16516, Mexico",,
-19.2806167,147.0308833,19.2806167S;147.0308833E,coordinates,20210623,"Cape Cleveland Road, Cape Cleveland, Townsville City, Queensland, Australia",,
19.287803,-99.159154,19.287803N;99.159154W,coordinates,20210623,"Instituto Nacional de Cancerología, Calle Vasco de Quiroga, Colonia Belisario Domínguez Sección XVI, Mexico City, Tlalpan, Mexico City, 14080, Mexico",,
19.332749,-99.179174,19.332749N;99.179174W,coordinates,20210623,"Edificio de Investigación Facultad de Medicina, Circuito Escolar, Colonia Copilco Universidad, Mexico City, Coyoacán, Mexico City, 04510, Mexico",,
-19.33,134.21,19.33S;134.21E,coordinates,20210623,"Warumungu, Barkly Region, Northern Territory, Australia",,
-19.39111,-40.072222222222216,19.39111S;40.07222222222222W,coordinates,20210623,"Avenida Presidente Campos Salles, Colina, Linhares, Região Geográfica Imediata de Linhares, Região Geográfica Intermediária de São Mateus, Espírito Santo, Southeast Region, 29900-495, Brazil",,
-19.39111,-40.07222222,19.39111S;40.07222222W,coordinates,20231103_v2,"Avenida Presidente Campos Salles, Colina, Linhares, Região Geográfica Imediata de Linhares, Região Geográfica Intermediária de São Mateus, Espírito Santo, Southeast Region, 29900-495, Brazil",,
-19.3,146.8,19.3S;146.8E,coordinates,20210623,"Bowen Road, Rosslea, Townsville, Townsville City, Queensland, 4812, Australia",,
19.4103,-99.1511,19.4103N;99.1511W,coordinates,2024,"Centro Medico Nacional Siglo XXI, Calle Doctor Rafaél Norma, Doctores, Mexico City, Cuauhtémoc, Mexico City, 06720, Mexico",,
19.43,-99.13,19.43N;99.13W,coordinates,20210623,"KFC, 70, Correo Mayor, Centro, Mexico City, Cuauhtémoc, Mexico City, 06060, Mexico",,
19.43,-99.0,19.43N;99W,coordinates,20210623,"Nezahualcóyotl, Texcoco, 57300, Mexico",,
-19.451,-47.5557,19.451S;47.5557W,coordinates,20210623,"Zelândia, Santa Juliana, Região Geográfica Imediata de Uberaba, Região Geográfica Intermediária de Uberaba, Minas Gerais, Southeast Region, Brazil",,
19.45,-99.12,19.45N;99.12W,coordinates,20210623,"Calle Talabarteros, Emilio Carranza, Mexico City, Venustiano Carranza, Mexico City, 15230, Mexico",,
-19.49,132.55,19.49S;132.55E,coordinates,20210623,"Tanami East, Barkly Region, Northern Territory, Australia",,
19.52,102.1,19.52N;102.10E,coordinates,20210623,"Xiengngeun District, Luang Prabang, 06000, Laos",,
19.53,110.88,19.53N;110.88E,coordinates,20231103,"Dongjiao, Wenchang City, Hainan Province, China",,
-19.55,-43.56,19.55S;43.56W,coordinates,20210623,"Altamira, Nova União, Região Geográfica Imediata de Belo Horizonte, Região Metropolitana de Belo Horizonte, Região Geográfica Intermediária de Belo Horizonte, Minas Gerais, Southeast Region, Brazil",,
19.56,110.31,19.56N;110.31E,coordinates,2024,"63, Leiming, Ding'an County, Hainan Province, China",,
19.6928,119.3316,19.6928N;119.3316E,coordinates,20231103,,,
19.7,110.32,19.70N;110.32E,coordinates,20210623,"文体路, Dingcheng, Ding'an County, Hainan Province, China",,
19.75,110.0,19.75N;110E,coordinates,20210623,"303 Provincial Road, Chengmai County, Hainan Province, China",,
19.8563,102.4955,19.8563N;102.4955E,coordinates,20231103,"Sankang, Phonxay District, Luang Prabang, Laos",,
19.87624,-103.567125,19.876240N;103.567125W,coordinates,20231103,"Usmajac, Sayula, Región Sur, Jalisco, 49300, Mexico",,
19.88,75.31999999999991,19.88N;75.31999999999994E,coordinates,20210623,"Osmanpura, Chhatrapati Sambhajinagar, Chhatrapati Sambhajinagar District, Maharashtra, 431002, India",,
-19.920833,-43.937778,19.920833S;43.937778W,coordinates,20210623,"Avenida Afonso Pena, Centro, Regional Centro-Sul, Belo Horizonte, Região Geográfica Imediata de Belo Horizonte, Região Metropolitana de Belo Horizonte, Região Geográfica Intermediária de Belo Horizonte, Minas Gerais, Southeast Region, 30130-905, Brazil",,
-19.9208,-43.9378,19.9208S;43.9378W,coordinates,20210623,"Avenida Afonso Pena, Centro, Regional Centro-Sul, Belo Horizonte, Região Geográfica Imediata de Belo Horizonte, Região Metropolitana de Belo Horizonte, Região Geográfica Intermediária de Belo Horizonte, Minas Gerais, Southeast Region, 30130-905, Brazil",,
-19.9245,-43.9352,19.9245S;43.9352W,coordinates,20210623,"Avenida Álvares Cabral, Centro, Regional Centro-Sul, Belo Horizonte, Região Geográfica Imediata de Belo Horizonte, Região Metropolitana de Belo Horizonte, Região Geográfica Intermediária de Belo Horizonte, Minas Gerais, Southeast Region, 30130-004, Brazil",,
19.0,-97.0,19N;97W,coordinates,20210623,"San Martín, San José Neria, Chocamán, Veracruz, 94160, Mexico",,
2.02,103.24,2.02N;103.24E,coordinates,20210623,"Kluang, Johor, Malaysia",,
-2.324342,111.766196,2.324342S;111.766196E,coordinates,20231103,"West Kotawaringin, Central Kalimantan, Kalimantan, Indonesia",,
2.4933,102.8591,2.4933N;102.8591E,coordinates,20210623,"Segamat Hospital, KM6, Jalan Genuang, Segamat Baru, Kampung Sedeng, Segamat, Johor, 85000, Malaysia",,
2.500593,102.09388,2.500593N;102.093880E,coordinates,20210623,"Pedas Linggi Layby, North–South Expressway, Rembau, Negeri Sembilan, Malaysia",,
2.5,102.82,2.50N;102.82E,coordinates,20210623,"Indah Water, Jalan Mida 5, Taman Mida, Segamat, Johor, 85000, Malaysia",,
2.59,-75.18,2.59N;75.18W,coordinates,20210623,"El Cedral, Algeciras, Norte, Huila, RAP (Especial) Central, Colombia",,
2.638889,-78.089167,2.638889N;78.089167W,coordinates,20231103,"La Ensenada, Santa Bárbara, Sanquianga, Nariño, RAP Pacífico, Colombia",,
-2.752735,35.30826333,2.752735S;35.30826333E,coordinates,20231103,"Arusha, Northern Zone, Tanzania",,
-2.79795333,35.253975,2.79795333S;35.253975E,coordinates,20231103,"Ngorongoro, Arusha, Northern Zone, Tanzania",,
2.9305,101.7787,2.9305N;101.7787E,coordinates,20210623,"Chancellor Tun Abdul Razak Hall, Jalan Bangi, Kajang Municipal Council, Hulu Langat, 43600, Malaysia",,
20.0120263,110.1793098,20.0120263N;110.1793098E,coordinates,20210623,"225国道 - 海秀西路 - 225 National Road - Haisheng Road, Xiuying District, Haikou City, Hainan Province, China",,
20.046,110.193,20.046N;110.193E,coordinates,20210623,"Xiuying District, Haikou City, Hainan Province, 570311, China",,
20.0561,105.6183,20.0561N;105.6183E,coordinates,20210623,"Vĩnh Lộc, Vĩnh Lộc District, Thanh Hóa Province, Vietnam",,
20.06,110.62,20.06N;110.62E,coordinates,20231103,"Longfeng, Wenchang City, Hainan Province, China",,
20.073672,102.393991,20.073672N;102.393991E,coordinates,20231103,"2505, Sopchek, Pak Seng District, Luang Prabang, Laos",,
20.13,109.39,20.13N;109.39E,coordinates,20210623,"Hainan Province, China",,
-20.2002778,57.54555600000001,20.2002778S;57.54555600000003E,coordinates,20210623,"La Laura, La Laura Malenga, Moka, 81402, Mauritius",,
-20.2002778,57.545556,20.2002778S;57.54555600E,coordinates,20231103,"La Laura, La Laura Malenga, Moka, 81402, Mauritius",,
20.237556,84.270018,20.237556N;84.270018E,coordinates,20210623,"Tikabali, Kandhamal District, Odisha, 762010, India",,
20.24661727,-101.9398781,20.24661727N;101.93987810W,coordinates,20231103,"Numarán, Michoacán, Mexico",,
-20.268639,-50.548496,20.268639S;50.548496W,coordinates,20210623,"Catedral Diocesana Nossa Senhora da Assunção, Avenida João Amadeu, Jardim Paulo Sexto, Jales, Região Imediata de Jales, Região Geográfica Intermediária de São José do Rio Preto, São Paulo, Southeast Region, 15703-028, Brazil",,
20.2828,85.7696,20.2828N;85.7696E,coordinates,20210623,"Sum Hospital Blood Bank, Khandagiri - Chandaka Road, Ward 23, South West Zone, Bhubaneswar Municipal Corporation, Bhubaneswar (M.Corp.), Khordha District, Odisha, 751003, India",,
-20.32,-40.33,20.32S;40.33W,coordinates,20210623,"478, Avenida Princesa Isabel, Centro, Vitória, Região Geográfica Imediata de Vitória, Greater Vitória, Região Geográfica Intermediária de Vitória, Espírito Santo, Southeast Region, 29010-365, Brazil",,
20.3,-157.3,20.3N;157.3W,coordinates,20210623,,,
20.4,-89.13,20.40N;89.13W,coordinates,20210623,"Teabo, Yucatán, Mexico",,
20.445128,106.33787,20.445128N;106.337870E,coordinates,20210623,"Lý Bôn, Thái Bình, Thái Bình Province, 06118, Vietnam",,
20.45,106.34,20.45N;106.34E,coordinates,20210623,"Lê Thánh Tông, Thái Bình, Thái Bình Province, 06118, Vietnam",,
-20.45,-42.51,20.45S;42.51W,coordinates,20210623,"Sericita, Região Geográfica Imediata de Ponte Nova, Região Geográfica Intermediária de Juiz de Fora, Minas Gerais, Southeast Region, Brazil",,
-20.5385,130.310528,20.5385S;130.310528E,coordinates,20210623,"Mine Access Road - No Public Access, Tanami, Central Desert Region, Northern Territory, Australia",,
20.5387,106.3935,20.5387N;106.3935E,coordinates,20210623,"Gốc Đa Đồng lang, Đông Hưng District, Thái Bình Province, Vietnam",,
-20.5579389,-67.2082111,20.5579389S;67.2082111W,coordinates,2024,"Municipio Colcha K, Provincia Nor Lípez, Potosí, Bolivia",,
20.57,-89.39,20.57N;89.39W,coordinates,20210623,"Tekit, Yucatán, Mexico",,
20.5937,78.9629,20.5937N;78.9629E,coordinates,20210623,"wadgaon, Hirdi, Samudrapur, Wardha District, Maharashtra, India",,
20.683000000000003,-24.219,20.683N;24.219W,coordinates,20210623,,,
20.6871,-103.3438,20.6871N;103.3438W,coordinates,2024,"Hospital Civil Fray Antonio Alcalde, Calle Hospital, Centro Barranquitas, Guadalajara, Región Centro, Jalisco, 44280, Mexico",,
20.70101,116.72281,20.70101N;116.72281E,coordinates,2024,"Dongsha Island Lagoon Special Scenic Area, Zhongxing Village, Qijin District, Kaohsiung, 805, Taiwan",,
-20.7467991,-43.0193046,20.7467991S;43.0193046W,coordinates,20231103,"Porto Firme, Região Geográfica Imediata de Viçosa, Região Geográfica Intermediária de Juiz de Fora, Minas Gerais, Southeast Region, Brazil",,
-20.8049041067506,-55.1870727539063,20.804904106750556S;55.18707275390625W,coordinates,20210623,"Dois Irmãos do Buriti, Região Geográfica Imediata de Campo Grande, Região Geográfica Intermediária de Campo Grande, Mato Grosso do Sul, Central-West Region, Brazil",,
20.8526,106.017,20.8526N;106.0170E,coordinates,20210623,"Khoái Châu District, Hưng Yên Province, Vietnam",,
-20.89,-11.42,20.89S;11.42W,coordinates,20210623,,,
-20.949529,-48.47929,20.949529S;48.479290W,coordinates,20210623,"Rua Doutor Oscar Werneck, Jardim de Lúcia, Bebedouro, Região Imediata de Barretos, Região Geográfica Intermediária de Ribeirão Preto, São Paulo, Southeast Region, 14701-120, Brazil",,
20.95329501,105.83197885,20.95329501N;105.83197885E,coordinates,20231103,"277, Đường Tựu Liệt, Phường Hoàng Liệt, Van Dien, Thanh Tri District, Hà Nội, 11718, Vietnam",,
20.95712843,105.82005564,20.95712843N;105.82005564E,coordinates,20231103,"Xã Thanh Liệt, Thanh Tri District, Hà Nội, 10136, Vietnam",,
20.96321052,105.81806181,20.96321052N;105.81806181E,coordinates,20231103,"Cầu Quang, Xã Thanh Liệt, Hoang Mai District, Thanh Tri District, Hà Nội, 10136, Vietnam",,
20.991380623833056,105.86277218148145,20.991380623833056N;105.86277218148145E,coordinates,20210623,"Đường Tam Trinh, Phường Mai Động, Hoang Mai District, Hà Nội, 11617, Vietnam",,
20.99138062,105.86277218,20.99138062N;105.86277218E,coordinates,20231103,"Đường Tam Trinh, Phường Mai Động, Hoang Mai District, Hà Nội, 11617, Vietnam",,
21.0185,105.8603,21.0185N;105.8603E,coordinates,20231103,"108 Military Central Hospital, 1, Tran Hung Dao Street, Phường Phan Chu Trinh, Hoan Kiem District, Hà Nội, 10180, Vietnam",,
21.0277,105.8341,21.0277N;105.8341E,coordinates,20210623,"Ton Duc Thang Street, Phường Quốc Tử Giám, Dong Da District, Hà Nội, 10081, Vietnam",,
21.02,105.83,21.02N;105.83E,coordinates,20210623,"292, Ton Duc Thang Street, Phường Hàng Bột, Dong Da District, Hà Nội, 10306, Vietnam",,
21.03,105.85,21.03N;105.85E,coordinates,2024,"63, Hang Trong Street, Phường Hàng Gai, Phường Hàng Trống, Hoan Kiem District, Hà Nội, 10016, Vietnam",,
21.040278,-101.79138890000002,21.040278N;101.79138890000002W,coordinates,20210623,"Fracc Pedrosa, San Francisco del Rincón, Guanajuato, 36445, Mexico",,
-21.133183,-9.710846,21.133183S;9.710846W,coordinates,20210623,,,
21.15,110.31,21.15N;110.31E,coordinates,20210623,"Yulin-Zhanjiang Expwy, Mazhang District, Zhanjiang City, Guangdong Province, China",,
21.1801450782301,40.0312507152557,21.18014507823011N;40.03125071525574E,coordinates,20210623,"Umm ar Rakah, Bahrah, Makkah Region, Saudi Arabia",,
-21.2040056,55.3331194,21.2040056S;55.33311939999999E,coordinates,20210623,"1, 3, Chemin de la Mairie, Le Plate, Saint-Leu, Saint-Paul, Réunion, 97424, France",,
-21.2040056,55.33311939,21.2040056S;55.33311939E,coordinates,20231103,"1, 3, Chemin de la Mairie, Le Plate, Saint-Leu, Saint-Paul, Réunion, 97424, France",,
-21.2,55.3,21.20S;55.30E,coordinates,20210623,"Chemin de la Diagonale, Stella, Le Cap Saint-Leu, Les Quatre Robinets, Saint-Leu, Saint-Paul, Réunion, 98230, France",,
21.21557,110.427568,21.21557N;110.427568E,coordinates,20231103,"Haiyang Road, Lehua Subdistrict, Xiashan District, Zhanjiang City, Guangdong Province, 524000, China",,
21.2733,-157.49,21.2733N;157.4900W,coordinates,20210623,United States,,
21.27,106.19,21.27N;106.19E,coordinates,20210623,"Công ty Cổ phần Phân đạm và Hoá chất Hà Bắc, Bắc Giang, Lạng Giang District, Bắc Giang Province, 21000, Vietnam",,
-21.2953111,55.44166110000001,21.2953111S;55.44166110000003E,coordinates,20210623,"Route de l'Entre Deux, Saint-Pierre, Réunion, 97451, France",,
-21.2953111,55.4416611,21.2953111S;55.44166110E,coordinates,20231103,"Route de l'Entre Deux, Saint-Pierre, Réunion, 97451, France",,
21.30261944,117.71093059999998,21.30261944N;117.7109306E,coordinates,20210623,,,
21.3,-157.81,21.30N;157.81W,coordinates,20231103,"Waahila Mountain Bike Route, Saint Louis Heights, East Honolulu, Honolulu, Honolulu County, Hawaii, 96848, United States",,
21.31,-158.02,21.31N;158.02W,coordinates,20231103,"Papipi Drive, Ewa Beach, Honolulu County, Hawaii, 96706, United States",,
21.32,105.4,21.32N;105.40E,coordinates,20210623,"Việt Trì, Phú Thọ Province, Vietnam",,
-21.32,55.49,21.32S;55.49E,coordinates,20210623,"Voie Cannière, Saint-Pierre, Réunion, 97410, France",,
-21.35615,55.5739333,21.35615S;55.57393330000002E,coordinates,20210623,"Rue Adénor Payet, Manapany les Bas, Petite-Île, Saint-Pierre, Réunion, 97429, France",,
-21.35615,55.5739333,21.35615S;55.57393330E,coordinates,20231103,"Rue Adénor Payet, Manapany les Bas, Petite-Île, Saint-Pierre, Réunion, 97429, France",,
21.3672,119.4074,21.3672N;119.4074E,coordinates,20210623,,,
-21.368092,55.553608,21.368092S;55.553608E,coordinates,20210623,"Route de Grand Anse, Chemin Neuf, La Croisée, Petite-Île, Saint-Pierre, Réunion, 97429, France",,
21.3891,39.8579,21.3891N;39.85789999999997E,coordinates,20210623,"King Khaled, Makkah Al Mukarramah, Makkah Region, 24235, Saudi Arabia",,
21.3891,39.85789999,21.3891N;39.85789999E,coordinates,20231103,"King Khaled, Makkah Al Mukarramah, Makkah Region, 24235, Saudi Arabia",,
21.39,-157.93,21.39N;157.93W,coordinates,20210623,"Pearl Country Club, 98-535, Kaonohi Street, Waimalu, Aiea, Honolulu County, Hawaii, 96701, United States",,
-21.405481,-64.130978,21.405481S;64.130978W,coordinates,2024,"Municipio Entre Rios, Provincia Burnet O'Connor, Tarija, Bolivia",,
21.4389,-158.0001,21.4389N;158.0001W,coordinates,20231103,"Plantation Road, Waipahu, Honolulu County, Hawaii, 96789, United States",,
21.457237,109.135442,21.457237N;109.135442E,coordinates,20210623,"Yima Subdistrict, Haicheng District, Beihai, Guangxi, China",,
21.4597,-157.8042,21.4597N;157.8042W,coordinates,20210623,"Honolulu County, Hawaii, United States",,
21.45,109.3,21.45N;109.3E,coordinates,20231103,"Yinhai District, Beihai, Guangxi, China",,
21.4858,39.1925,21.4858N;39.1925E,coordinates,20231103,"Khalid bin Al Walid St., Al-Balad, Jeddah, Governorate of Jidda, Makkah Region, 22233, Saudi Arabia",,
-21.4,-64.1,21.4S;64.1W,coordinates,2024,"Municipio Entre Rios, Provincia Burnet O'Connor, Tarija, Bolivia",,
21.5,100.7667,21.5000N;100.7667E,coordinates,20210623,"Mong Yawng Township, 南板县, East Shan State, Shan State, 掸邦东部第四特区, Myanmar",,
21.54,110.5,21.54N;110.50E,coordinates,20210623,"Liangguang, Huazhou City, Maoming City, Guangdong Province, China",,
21.55,100.45,21.55N;100.45E,coordinates,20210623,"Menglong, Jinghong City, Xishuangbanna, Yunnan, 666100, China",,
21.56,113.38,21.56N;113.38E,coordinates,20231103,"Jinwan, Guangdong Province, China",,
21.57,113.38,21.57N;113.38E,coordinates,20231103,"Jinwan, Guangdong Province, China",,
21.58,113.38,21.58N;113.38E,coordinates,20231103,"Jinwan, Guangdong Province, China",,
21.59,119.62,21.59N;119.62E,coordinates,20231103,,,
21.604,-104.952,21.604N;104.952W,coordinates,20231103,"Tepic - Crucero de San Blas, Tepic, Nayarit, 63515, Mexico",,
21.63,110.92,21.63N;110.92E,coordinates,20210623,"Chengnan, Maonan District, Maoming City, Guangdong Province, 525000, China",,
21.9113,49.3653,21.9113N;49.3653E,coordinates,20231103,"Al Ahsa Governorate, Eastern Province, Saudi Arabia",,
21.9935,113.7221,21.9935N;113.7221E,coordinates,20210623,"Wanshan Islands, Zhuhai Wanshan Marine Development Experimental Zone, Xiangzhou District, Zhuhai, Guangdong Province, China",,
21.0,110.0,21N;110E,coordinates,20210623,"Leizhou City, Zhanjiang City, Guangdong Province, China",,
22.0667,88.0698,22.0667N;88.0698E,coordinates,20210623,"Bhabanipur Hut, Milan, Mecheda-Haldia Highway, Haldia, Purba Medinipur District, West Bengal, 721631, India",,
-22.125833,-47.662778,22.125833S;47.662778W,coordinates,20210623,"Rua Cinco, Analândia, Região Imediata de Rio Claro, Região Metropolitana de Piracicaba, Região Geográfica Intermediária de Campinas, São Paulo, Southeast Region, 13550-000, Brazil",,
-22.133711,166.350494,22.133711S;166.350494E,coordinates,20210623,"Chemin Marie Louis Genet, Ondémia, Païta, South Province, New Caledonia, 98889, France",,
22.17,113.34,22.17N;113.34E,coordinates,2024,"Baiteng, Doumen District, Zhuhai, Guangdong Province, 519090, China",,
22.18,114.1,22.18N;114.10E,coordinates,20231103,"Islands District, New Territories, Hong Kong, China",,
22.2,-101.05,22.20N;101.05W,coordinates,20210623,"Calle 28, Jaralito, San Marcos Carmona, Mexquitic de Carmona, San Luis Potosí, 78133, Mexico",,
-22.214,-176.608,22.214S;176.608W,coordinates,20210623,,,
22.22,113.55,22.22N;113.55E,coordinates,20231103,"拱北口岸隧道, Maoshengwei, Gongbei Subdistrict, Xiangzhou District, Zhuhai, Guangdong Province, 519000, China",,
22.232514,114.172461,22.232514N;114.172461E,coordinates,20231103,"The Summit, Boardwalk, Sham Shui Kok, Tai Shue Wan, Southern District, Hong Kong Island, Hong Kong, China",,
22.2345,114.1952,22.2345N;114.1952E,coordinates,20210623,"Repulse Bay Beach, Beach Road, Repulse Bay, Southern District, Hong Kong Island, Hong Kong, China",,
22.243027,114.182764,22.243027N;114.182764E,coordinates,20210623,"Mills & Chung Path, Deep Water Bay, Southern District, Hong Kong Island, Hong Kong, China",,
22.2587274,114.1329664,22.2587274N;114.1329664E,coordinates,20231103,"Cyberport Road, Kellett Bay, Shui Choi Tin Village, Southern District, Hong Kong Island, Hong Kong, China",,
22.261351,114.133168,22.261351N;114.133168E,coordinates,20231103,"下碧瑤灣 Lower Baguio Villa, 550, Victoria Road, Telegraph Bay, Pok Fu Lam, Southern District, Hong Kong Island, Hong Kong, China",,
22.26261,114.130876,22.262610N;114.130876E,coordinates,20231103,"30, Information Crescent, Cyberport, Pok Fu Lam, Southern District, Hong Kong Island, Hong Kong, China",,
22.2626832,114.1312297,22.2626832N;114.1312297E,coordinates,20231103,"30, Information Crescent, Cyberport, Pok Fu Lam, Southern District, Hong Kong Island, Hong Kong, China",,
22.2636491,114.1304524,22.2636491N;114.1304524E,coordinates,20231103,"The ISF Academy, 1, Kong Sin Wan Road, Telegraph Bay, Pok Fu Lam, Southern District, Hong Kong Island, Hong Kong, China",,
22.263738,114.129972,22.263738N;114.129972E,coordinates,20231103,"1, Kong Sin Wan Road, Telegraph Bay, Pok Fu Lam, Southern District, Hong Kong Island, Hong Kong, China",,
22.264207,114.129618,22.264207N;114.129618E,coordinates,20231103,"The ISF Academy, 1, Kong Sin Wan Road, Telegraph Bay, Pok Fu Lam, Southern District, Hong Kong Island, Hong Kong, China",,
22.26425,114.12972,22.264250N;114.129720E,coordinates,20231103,"The ISF Academy, 1, Kong Sin Wan Road, Telegraph Bay, Pok Fu Lam, Southern District, Hong Kong Island, Hong Kong, China",,
22.2642601,114.1299767,22.2642601N;114.1299767E,coordinates,20231103,"The ISF Academy, 1, Kong Sin Wan Road, Telegraph Bay, Pok Fu Lam, Southern District, Hong Kong Island, Hong Kong, China",,
22.264463,114.130201,22.264463N;114.130201E,coordinates,20231103,"The ISF Academy, 1, Kong Sin Wan Road, Telegraph Bay, Pok Fu Lam, Southern District, Hong Kong Island, Hong Kong, China",,
22.2645663,114.1305075,22.2645663N;114.1305075E,coordinates,20231103,"The ISF Academy, 1, Kong Sin Wan Road, Telegraph Bay, Pok Fu Lam, Southern District, Hong Kong Island, Hong Kong, China",,
22.264632,114.130166,22.264632N;114.130166E,coordinates,20231103,"The ISF Academy, 1, Kong Sin Wan Road, Telegraph Bay, Pok Fu Lam, Southern District, Hong Kong Island, Hong Kong, China",,
22.264947,114.129823,22.264947N;114.129823E,coordinates,20231103,"The ISF Academy, 1, Kong Sin Wan Road, Telegraph Bay, Pok Fu Lam, Southern District, Hong Kong Island, Hong Kong, China",,
22.265048,114.129749,22.265048N;114.129749E,coordinates,20231103,"The ISF Academy, 1, Kong Sin Wan Road, Telegraph Bay, Pok Fu Lam, Southern District, Hong Kong Island, Hong Kong, China",,
22.2650936,114.1303742,22.2650936N;114.1303742E,coordinates,20231103,"The ISF Academy, 1, Kong Sin Wan Road, Telegraph Bay, Pok Fu Lam, Southern District, Hong Kong Island, Hong Kong, China",,
22.265138,114.130334,22.265138N;114.130334E,coordinates,2024,"Telegraph Bay Path, Telegraph Bay, Pok Fu Lam, Southern District, Hong Kong Island, Hong Kong, China",,
22.265251,114.130075,22.265251N;114.130075E,coordinates,20231103,"Telegraph Bay Path, Telegraph Bay, Pok Fu Lam, Southern District, Hong Kong Island, Hong Kong, China",,
22.26618,114.130492,22.266180N;114.130492E,coordinates,20231103,"Telegraph Bay Path, Telegraph Bay, Pok Fu Lam, Southern District, Hong Kong Island, Hong Kong, China",,
22.266384,114.191128,22.266384N;114.191128E,coordinates,20231103,"18, Wilson Road, Happy Valley, Wan Chai District, Hong Kong Island, Hong Kong, China",,
22.266387,114.191285,22.266387N;114.191285E,coordinates,20231103,"10, Wilson Road, Happy Valley, Jardine's Lookout, Wan Chai District, Hong Kong Island, Hong Kong, China",,
22.266389,114.191116,22.266389N;114.191116E,coordinates,20231103,"18, Wilson Road, Happy Valley, Jardine's Lookout, Wan Chai District, Hong Kong Island, Hong Kong, China",,
22.266431,114.130563,22.266431N;114.130563E,coordinates,20231103,"Telegraph Bay Path, Telegraph Bay, Pok Fu Lam, Southern District, Hong Kong Island, Hong Kong, China",,
22.266595,114.191275,22.266595N;114.191275E,coordinates,20231103,"10, Wilson Road, Happy Valley, Jardine's Lookout, Wan Chai District, Hong Kong Island, Hong Kong, China",,
22.267006,114.130216,22.267006N;114.130216E,coordinates,20231103,"Telegraph Bay Path, Telegraph Bay, Pok Fu Lam, Southern District, Hong Kong Island, Hong Kong, China",,
22.26,112.57,22.26N;112.57E,coordinates,20231103,"Sanxiaocun, Taishan, Jiangmen, Guangdong Province, China",,
22.270228,114.130868,22.270228N;114.130868E,coordinates,20231103,"Main Block, Pok Fu Lam Road, Telegraph Bay, Pok Fu Lam, Southern District, Hong Kong Island, Hong Kong, China",,
22.275866,114.171324,22.275866N;114.171324E,coordinates,20231103,"Antung Building, 6-16, Tai Wong Street East, Wan Chai South, Wan Chai, Wan Chai District, Hong Kong Island, Hong Kong, China",,
22.27832,114.17469,22.27832N;114.17469E,coordinates,20231103,"Lockhart Road, Wan Chai North, Wan Chai, Wan Chai District, Hong Kong Island, Hong Kong, 000000, China",,
22.27,113.57,22.27N;113.57E,coordinates,20231103,"Zhuhai No.2 Senior High School, 60, Renmin East Road, Shishan Subdistrict, Xiangzhou District, Zhuhai, Guangdong Province, 519000, China",,
22.2815035,114.14388,22.2815035N;114.14388E,coordinates,20231103,"Wah Sen Court, 68, Conduit Road, Mid-Levels West, Sai Ying Pun, Central and Western District, Hong Kong Island, Hong Kong, China",,
22.2833469,114.1847401,22.2833469N;114.1847401E,coordinates,20231103,"Victoria Park Road, East Point, Causeway Bay, Wan Chai District, Hong Kong Island, Hong Kong, 000000, China",,
22.2838793,114.1820683,22.2838793N;114.1820683E,coordinates,20231103,"Royal Hong Kong Yacht Club, Cross-Harbour Tunnel, East Tsim Sha Tsui, Tsim Sha Tsui, Wan Chai District, Hong Kong Island, Hong Kong, 000000, China",,
22.285459,114.201753,22.285459N;114.201753E,coordinates,20231103,"Cloud View Road, Braemar Hill, North Point, Eastern District, Hong Kong Island, Hong Kong, 000000, China",,
22.28,113.58,22.28N;113.58E,coordinates,20231103,"Haiyu Road, Xiangwan Subdistrict, Xiangzhou District, Zhuhai, Guangdong Province, 519000, China",,
22.28,114.14,22.28N;114.14E,coordinates,20210623,"Po Shan Road, Mid-Levels West, Sai Ying Pun, Central and Western District, Hong Kong Island, Hong Kong, China",,
-22.2995,166.8618,22.2995S;166.8618E,coordinates,20210623,"Route de la Pointe de l'Abattoir, Mont Dore, South Province, New Caledonia, France",,
22.2,114.2,22.2N;114.2E,coordinates,20231103,"Snoopy Rock, Chung Hom Kok, Southern District, Hong Kong Island, Hong Kong, China",,
22.306004,114.170204,22.306004N;114.170204E,coordinates,20231103,"Nanking Street, Kwun Chung, Yau Ma Tei, Yau Tsim Mong District, Kowloon, Hong Kong, 000000, China",,
22.31,114.0,22.31N;114.00E,coordinates,2024,"Siu Ho Wan, Discovery Bay, Islands District, New Territories, Hong Kong, China",,
22.32,114.03,22.32N;114.03E,coordinates,20210623,"Wan Tuk, Tsuen Wan District, New Territories, Hong Kong, China",,
22.34,39.08,22.34N;39.08E,coordinates,20210623,"King Abdullah Economic City, Saudi Arabia",,
22.35,113.58,22.35N;113.58E,coordinates,20210623,"Tangjiawan, Xiangzhou District, Zhuhai, Guangdong Province, 519000, China",,
-22.360993,166.8796,22.360993S;166.8796E,coordinates,20210623,"Port de Prony/Vale, South Province, New Caledonia, France",,
22.373955,114.150408,22.373955N;114.150408E,coordinates,20231103,"Sha Tin Country Trail, Sha Tin District, New Territories, Hong Kong, 999077, China",,
22.3759876,114.1058617,22.3759876N;114.1058617E,coordinates,2024,"On Yuk Road, Summit Terrace, Chai Wan Kok, Tsuen Wan, Tsuen Wan District, New Territories, Hong Kong, China",,
22.38455095,114.14407797,22.38455095N;114.14407797E,coordinates,20231103,"Pineapple Dam, Shing Mun Road, Sheung Yat Tsuen, Kwai Chung, Tsuen Wan District, New Territories, Hong Kong, China",,
22.38,110.09,22.38N;110.09E,coordinates,20210623,"Shatian, Fumian District, Yulin City, Guangxi, 543000, China",,
22.38,113.55,22.38N;113.55E,coordinates,20210623,"港湾大道, 宝莱特-珠海远光-万利达智能电气科技园, Tangjiawan, Xiangzhou District, Zhuhai, Guangdong Province, 519000, China",,
22.38,114.05,22.38N;114.05E,coordinates,20210623,"No. 22, Tai Lam Town Gas Pipeline, Tsing Fai Tong, Sham Tseng Sun Tsuen, Tsuen Wan District, New Territories, Hong Kong, China",,
22.39,110.09,22.39N;110.09E,coordinates,20210623,"Shatian, Fumian District, Yulin City, Guangxi, 543000, China",,
22.39,114.11,22.39N;114.11E,coordinates,20210623,"Chuen Lung, Wang Lung Village, Tsuen Wan District, New Territories, Hong Kong, China",,
22.41595,114.209722,22.415950N;114.209722E,coordinates,20231103,"Lingnan Stadium, Station Road, Ma Liu Shui, Kau To, Sha Tin District, New Territories, Hong Kong, China",,
22.41,39.12,22.41N;39.12E,coordinates,2024,"Rabigh, Makkah Region, 23955, Saudi Arabia",,
22.4499,89.8528,22.4499N;89.8528E,coordinates,20210623,"Morelganj, Morrelganj Upazila, Bagerhat District, Khulna Division, Bangladesh",,
22.45,108.26,22.45N;108.26E,coordinates,20210623,"清凭高速, Liangqing District, Nanning, Guangxi, China",,
22.45,114.2,22.45N;114.20E,coordinates,20231103,"獅地下, Sam Mun Tsai, Luen Yick Fishermen Village, Tai Po District, New Territories, Hong Kong, China",,
22.45,-158.0,22.45N;158W,coordinates,20210623,,,
22.4,114.2,22.4N;114.2E,coordinates,20231103,"Lok Lam Road, Lok Lo Ha, Pat Tsz Wo, Lok Lo Ha Village, Sha Tin District, New Territories, Hong Kong, China",,
22.514832,114.108248,22.514832N;114.108248E,coordinates,20231103,"Lo Wu Saddle Club, Ho Sheung Heung Road, Shek Tsai Leng, Tsung Yuen, Ho Sheung Heung, North District, New Territories, Hong Kong, 518005, China",,
22.514941,114.108267,22.514941N;114.108267E,coordinates,20231103,"Lo Wu Saddle Club, Ho Sheung Heung Road, Shek Tsai Leng, Tsung Yuen, Ho Sheung Heung, North District, New Territories, Hong Kong, 518005, China",,
22.515318,114.108814,22.515318N;114.108814E,coordinates,20231103,"Lo Wu Saddle Club, Ho Sheung Heung Road, Shek Tsai Leng, Tsung Yuen, Ho Sheung Heung, North District, New Territories, Hong Kong, 518005, China",,
22.516269,114.111979,22.516269N;114.111979E,coordinates,20210623,"Ho Sheung Heung Road, Shek Tsai Leng, Tsung Yuen, Ho Sheung Heung, North District, New Territories, Hong Kong, 518005, China",,
22.51,-102.36,22.51N;102.36W,coordinates,20210623,"Piedra Gorda, Cuauhtémoc, Zacatecas, Mexico",,
22.5241402444133,113.948830068111,22.524140244413307N;113.94883006811142E,coordinates,20210623,"滨海沙河西立交, Gaoxin South Ring Road, Yuehai Sub-district, Nanshan District, Shenzhen, Guangdong Province, 518000, China",,
22.52414024,113.94883006,22.52414024N;113.94883006E,coordinates,20231103_v2,"滨海沙河西立交, Gaoxin South Ring Road, Yuehai Sub-district, Nanshan District, Shenzhen, Guangdong Province, 518000, China",,
22.525,113.99,22.525N;113.99E,coordinates,2024,"Binhai Boulevard, Jincheng, Shatou Sub-district, Futian District, Shenzhen, Guangdong Province, 518000, China",,
22.5261978803132,113.931144922972,22.52619788031316N;113.93114492297173E,coordinates,20210623,"Haitian 2nd Road, Shenzhen Software Industry Base, Yuehai Sub-district, Nanshan District, Shenzhen, Guangdong Province, 518000, China",,
22.52619788,113.93114492,22.52619788N;113.93114492E,coordinates,20231103_v2,"Haitian 2nd Road, Shenzhen Software Industry Base, Yuehai Sub-district, Nanshan District, Shenzhen, Guangdong Province, 518000, China",,
-22.5309,-48.2642,22.5309S;48.2642W,coordinates,20210623,"Dois Córregos, Região Imediata de Jaú, Região Geográfica Intermediária de Bauru, São Paulo, Southeast Region, 17300-000, Brazil",,
22.5323,88.3292,22.5323N;88.3292E,coordinates,20210623,"Woodlands Multispeciality Hospital, 8/5, Alipore Road, Alipore, Kolkata, Kolkata District, West Bengal, 700027, India",,
22.539,114.599,22.539N;114.599E,coordinates,20231103,"鹿雁径, Nan'ao Sub-district, Dapeng New District, Longgang District, Shenzhen, Guangdong Province, 518100, China",,
22.539,114.602,22.539N;114.602E,coordinates,20231103,"鹿雁径, Nan'ao Sub-district, Dapeng New District, Longgang District, Shenzhen, Guangdong Province, 518100, China",,
22.53,114.05,22.53N;114.05E,coordinates,20210623,"Shixia North 8th Street, Mingyue, Fubao Sub-district, Futian District, Shenzhen, Guangdong Province, 518000, China",,
-22.53,-48.26,22.53S;48.26W,coordinates,20210623,"Dois Córregos, Região Imediata de Jaú, Região Geográfica Intermediária de Bauru, São Paulo, Southeast Region, 17300-000, Brazil",,
22.5431,114.0579,22.5431N;114.0579E,coordinates,20210623,"Jintian Road, Fuzhong, Lianhua Sub-district, Futian District, Shenzhen, Guangdong Province, 518000, China",,
22.54,114.08,22.54N;114.08E,coordinates,20210623,"TCM Hospital, Fuhua Road, Fuhua, Futian Sub-district, Futian District, Shenzhen, Guangdong Province, 518000, China",,
-22.54,-43.12,22.54S;43.12W,coordinates,20210623,"Trilha de acesso a Pedra do Capeta, Santo Aleixo, Magé, Região Geográfica Imediata do Rio de Janeiro, Região Metropolitana do Rio de Janeiro, Região Geográfica Intermediária do Rio de Janeiro, Rio de Janeiro, Southeast Region, 25630-050, Brazil",,
22.5575,114.1286,22.5575N;114.1286E,coordinates,20231103,"Aiguo Road, 木头龙社区, Cuizhu Sub-district, Luohu District, Shenzhen, Guangdong Province, 518000, China",,
22.5575,114.129,22.5575N;114.129E,coordinates,20231103,"Aiguo Road, Xinyi, Huangbei Sub-district, Luohu District, Shenzhen, Guangdong Province, 518000, China",,
-22.55,-43.11,22.55S;43.11W,coordinates,20210623,"Santo Aleixo, Magé, Região Geográfica Imediata do Rio de Janeiro, Região Metropolitana do Rio de Janeiro, Região Geográfica Intermediária do Rio de Janeiro, Rio de Janeiro, Southeast Region, 25912-296, Brazil",,
22.562848,114.321965,22.562848N;114.321965E,coordinates,20231103,"O Lo Pui, North District, New Territories, Hong Kong, 518081, China",,
22.5645,72.9289,22.5645N;72.9289E,coordinates,20210623,"Anand, Anand Rural Taluka, Anand District, Gujarat, 388001, India",,
22.5662,88.3999,22.5662N;88.3999E,coordinates,20231103,"I.D & B.G. Hospital, Beliaghata, Hem Chandra Naskar Road, Kolkata, Kolkata District, West Bengal, 700010, India",,
22.56,114.13,22.56N;114.13E,coordinates,20210623,"Aiguo Road, 木头龙社区, Cuizhu Sub-district, Luohu District, Shenzhen, Guangdong Province, 518000, China",,
22.56,72.96,22.56N;72.96E,coordinates,20210623,"Anand, Anand City Taluka, Anand District, Gujarat, 388001, India",,
22.5726,88.3639,22.5726N;88.3639E,coordinates,20210623,"Chatterjee Lane, Tiretta Bazaar, Bowbazar, Kolkata, Kolkata District, West Bengal, 700073, India",,
22.586206,113.08654,22.586206N;113.08654E,coordinates,20210623,"Jiangmen Jingxian Middle School, Yuejin Road, Pengjiang District, Jiangmen, Guangdong Province, 529000, China",,
22.58969554,114.03987606,22.58969554N;114.03987606E,coordinates,20231103,"Meilin Trail, Minzhi Sub-district, Longhua District, Shenzhen, Guangdong Province, 518110, China",,
22.58,113.08,22.58N;113.08E,coordinates,20210623,"地王广场地下停车场, Xiangxi Cross Road, Pengjiang District, Jiangmen, Guangdong Province, 529000, China",,
22.5957,89.6816,22.5957N;89.6816E,coordinates,20210623,"Rampal, Rampal Upazila, Bagerhat District, Khulna Division, Bangladesh",,
22.59,114.54,22.59N;114.54E,coordinates,20210623,"Dapeng Sub-district, Dapeng New District, Longgang District, Shenzhen, Guangdong Province, 518100, China",,
22.5,114.1,22.5N;114.1E,coordinates,20231103,"15, Geneva South Avenue, Valais, Kwu Tung Tin Sum, Kam Tsin, North District, New Territories, Hong Kong, 518032, China",,
22.5,114.2,22.5N;114.2E,coordinates,20210623,"千溪走廊, North District, New Territories, Hong Kong, China",,
22.5,114.0,22.5N;114E,coordinates,20231103,"上灣側, Sha Kau Tsuen Sheung Wan, Yuen Long District, New Territories, Hong Kong, China",,
22.61556,120.29751,22.61556N;120.29751E,coordinates,20231103,"Yuan's Gernal Hospital, 162, ChengGong 1st Road, Guzhong Village, Lingya District, Asia New Bay Area, Kaohsiung, 802, Taiwan",,
22.62,114.07,22.62N;114.07E,coordinates,20210623,"Huancheng South Road, 南坑, Bantian Sub-district, Longgang District, Shenzhen, Guangdong Province, 518100, China",,
22.651,114.515,22.651N;114.515E,coordinates,20231103,"Yanzao Rd, Kuichong Sub-district, Dapeng New District, Longgang District, Shenzhen, Guangdong Province, 518100, China",,
22.65,114.21,22.65N;114.21E,coordinates,20210623,"Huiyan Zhong Road, 马竹村, Henggang Sub-district, Longgang District, Shenzhen, Guangdong Province, 518100, China",,
22.6878,75.8542,22.6878N;75.8542E,coordinates,20210623,"Choithram Hospital and Research Centre, 14, Manikbagh Square, Indore City, Indore, Juni Indore Tahsil, Indore District, Madhya Pradesh, 452010, India",,
-22.736269,-47.644183,22.736269S;47.644183W,coordinates,20210623,"Rua Gomes Carneiro, Higienópolis, Piracicaba, Região Imediata de Piracicaba, Região Metropolitana de Piracicaba, Região Geográfica Intermediária de Campinas, São Paulo, Southeast Region, 13419-110, Brazil",,
-22.7491,-45.6057,22.7491S;45.6057W,coordinates,20210623,"Avenida Verador Agripino L de Moraes, Vila Lolly, Campos do Jordão, Região Imediata de Taubaté-Pindamonhangaba, Região Metropolitana do Vale do Paraíba e Litoral Norte, Região Geográfica Intermediária de São José dos Campos, São Paulo, Southeast Region, 12460-000, Brazil",,
22.756,-46.081,22.756N;46.081W,coordinates,20210623,,,
22.767065,120.363828,22.767065N;120.363828E,coordinates,20210623,"E-DA Hospital, 1, Yida Road, Jiaosu Village, Yanchao District, Jiaosu, Kaohsiung, 824, Taiwan",,
-22.7888429925872,-48.5073852539063,22.788842992587245S;48.50738525390625W,coordinates,20210623,"São Manuel, Região Imediata de Botucatu, Região Geográfica Intermediária de Bauru, São Paulo, Southeast Region, Brazil",,
22.7985,120.506,22.7985N;120.506E,coordinates,20231103,"Zhuojia, Sanbu Village, Ligang, Pingtung County, 905, Taiwan",,
-22.81904621640589,-47.070896532386506,22.819046216405944S;47.07089653238654W,coordinates,20210623,"Rua Carl Linnaeus, Barão Geraldo, Campinas, Região Imediata de Campinas, Região Metropolitana de Campinas, Região Geográfica Intermediária de Campinas, São Paulo, Southeast Region, 13083-851, Brazil",,
22.84,108.33,22.84N;108.33E,coordinates,20210623,"望州南路, Minsheng, Xingning District, Nanning, Guangxi, 530000, China",,
22.859441,120.190976,22.859441N;120.190976E,coordinates,2024,"Singda Road, Qilou Village, Jiading District, Kaohsiung, 852, Taiwan",,
-22.895179,-43.112422,22.895179S;43.112422W,coordinates,20210623,"303, Avenida Marquês do Paraná, Centro, Região Praias da Baía, Niterói, Região Geográfica Imediata do Rio de Janeiro, Região Metropolitana do Rio de Janeiro, Região Geográfica Intermediária do Rio de Janeiro, Rio de Janeiro, Southeast Region, 24033-900, Brazil",,
-22.8951,-43.2431,22.8951S;43.2431W,coordinates,20210623,"Hospital Central do Exército, 126, Rua Francisco Manuel, Benfica, Rio de Janeiro, Região Geográfica Imediata do Rio de Janeiro, Região Metropolitana do Rio de Janeiro, Região Geográfica Intermediária do Rio de Janeiro, Rio de Janeiro, Southeast Region, 20911-270, Brazil",,
-22.895255,-43.11229,22.895255S;43.112290W,coordinates,20210623,"303, Avenida Marquês do Paraná, Centro, Região Praias da Baía, Niterói, Região Geográfica Imediata do Rio de Janeiro, Região Metropolitana do Rio de Janeiro, Região Geográfica Intermediária do Rio de Janeiro, Rio de Janeiro, Southeast Region, 24033-900, Brazil",,
-22.896559,-43.119581,22.896559S;43.119581W,coordinates,20210623,"Creche Comunitária Jóias de Cristo, 179, Rua 15 de Novembro, Centro, Região Praias da Baía, Niterói, Região Geográfica Imediata do Rio de Janeiro, Região Metropolitana do Rio de Janeiro, Região Geográfica Intermediária do Rio de Janeiro, Rio de Janeiro, Southeast Region, 24020-320, Brazil",,
-22.897683,-47.061424,22.897683S;47.061424W,coordinates,20210623,"Avenida Dez de Setembro, Vila Itapura, Centro, Campinas, Região Imediata de Campinas, Região Metropolitana de Campinas, Região Geográfica Intermediária de Campinas, São Paulo, Southeast Region, 13010-211, Brazil",,
-22.9068,-43.1729,22.9068S;43.1729W,coordinates,20210623,"Avenida Presidente Antônio Carlos, Castelo, Centro, Rio de Janeiro, Região Geográfica Imediata do Rio de Janeiro, Região Metropolitana do Rio de Janeiro, Região Geográfica Intermediária do Rio de Janeiro, Rio de Janeiro, Southeast Region, 20020-010, Brazil",,
-22.9,-43.17,22.90S;43.17W,coordinates,20210623,"Doca 11 de Junho, Centro, Rio de Janeiro, Região Geográfica Imediata do Rio de Janeiro, Região Metropolitana do Rio de Janeiro, Região Geográfica Intermediária do Rio de Janeiro, Rio de Janeiro, Southeast Region, 20021-200, Brazil",,
-22.914131,-43.405982,22.914131S;43.405982W,coordinates,20210623,"Taquara, Rio de Janeiro, Região Geográfica Imediata do Rio de Janeiro, Região Metropolitana do Rio de Janeiro, Região Geográfica Intermediária do Rio de Janeiro, Rio de Janeiro, Southeast Region, 22723-021, Brazil",,
22.925801,113.862947,22.925801N;113.862947E,coordinates,20231103,"Guangdong Medical University (Dongguan Campus), Qinyuan Road, Songshanhu, Songshan Lake, Dalang Town, Dongguan, Guangdong Province, 523812, China",,
-22.95,-43.17,22.95S;43.17W,coordinates,20210623,"Iate Clube do Rio de Janeiro, 333, Avenida Pasteur, Urca, Rio de Janeiro, Região Geográfica Imediata do Rio de Janeiro, Região Metropolitana do Rio de Janeiro, Região Geográfica Intermediária do Rio de Janeiro, Rio de Janeiro, Southeast Region, 22290-240, Brazil",,
22.96,120.22,22.96N;120.22E,coordinates,20231103_v2,"Chongsheng Road Section 1, Ren'ai Village, Rende District, Tainan, 701, Taiwan",,
22.973529139189097,103.6271864352646,22.973529139189097;103.62718643526459,coordinates,20231103_v2,"Pingbian, Pingbian Miao Autonomous County, Honghe, Yunnan, China",,
22.974677,88.55700999999998,22.974677N;88.55701E,coordinates,20210623,"Haringhata, Nadia District, West Bengal, 741249, India",,
22.99675085,120.21694174,22.99675085N;120.21694174E,coordinates,20231103,"National Cheng Kung University, 1, Dasyue Road, Daxue Village, Eastern District, Tainan, 70101, Taiwan",,
22.99680033,120.21699805,22.99680033N;120.21699805E,coordinates,20231103,"National Cheng Kung University, 1, Dasyue Road, Daxue Village, Eastern District, Tainan, 70101, Taiwan",,
22.9968418,120.21711906,22.99684180N;120.21711906E,coordinates,20231103,"中正堂, Dasyue Road W. Sec., Chengda Village, Eastern District, Tainan, 701, Taiwan",,
22.99684746,120.21699294,22.99684746N;120.21699294E,coordinates,20231103,"National Cheng Kung University, 1, Dasyue Road, Daxue Village, Eastern District, Tainan, 70101, Taiwan",,
22.99686577,120.21729028,22.99686577N;120.21729028E,coordinates,20231103,"National Cheng Kung University, 1, Dasyue Road, Daxue Village, Eastern District, Tainan, 70101, Taiwan",,
22.9969397,120.21723005,22.99693970N;120.21723005E,coordinates,20231103,"中正堂, Dasyue Road W. Sec., Chengda Village, Eastern District, Tainan, 701, Taiwan",,
22.9969397,120.21728359,22.99693970N;120.21728359E,coordinates,20231103,"中正堂, Dasyue Road W. Sec., Chengda Village, Eastern District, Tainan, 701, Taiwan",,
22.99694478,120.21727955,22.99694478N;120.21727955E,coordinates,20231103,"中正堂, Dasyue Road W. Sec., Chengda Village, Eastern District, Tainan, 701, Taiwan",,
22.99696453,120.21750486,22.99696453N;120.21750486E,coordinates,20231103,"中正堂, Dasyue Road W. Sec., Chengda Village, Eastern District, Tainan, 701, Taiwan",,
22.99731556,120.21754304,22.99731556N;120.21754304E,coordinates,20231103,"管理學院停車格, 雲平大道, Chengda Village, Eastern District, Tainan, 701, Taiwan",,
22.99798717,120.2181868,22.99798717N;120.21818680E,coordinates,20231103,"Shengli Road, Chengda Village, Eastern District, Tainan, 701, Taiwan",,
22.99,120.21,22.99N;120.21E,coordinates,20210623,"Dongcai market, 26, 青年路164巷, Chenghuang Village, Zhongxi District, Tainan, 700, Taiwan",,
22.0,114.0,22N;114E,coordinates,20231103,"Dangan, Zhuhai Wanshan Marine Development Experimental Zone, Xiangzhou District, Zhuhai, Guangdong Province, China",,
23.00218255,120.21808788,23.00218255N;120.21808788E,coordinates,20231103,"National Cheng Kung University, 1, Dasyue Road, Daxue Village, Eastern District, Tainan, 70101, Taiwan",,
23.002234,120.219557,23.002234N;120.21955700000001E,coordinates,20210623,"National Cheng Kung University Hospital, 138, Shengli Road, Ren'ai Village, North District, Sanfenzi, Tainan, 704, Taiwan",,
23.002234,120.219557,23.002234N;120.21955700E,coordinates,20231103,"National Cheng Kung University Hospital, 138, Shengli Road, Ren'ai Village, North District, Sanfenzi, Tainan, 704, Taiwan",,
23.0025445,120.21938242,23.00254450N;120.21938242E,coordinates,20231103,"National Cheng Kung University Hospital, 138, Shengli Road, Ren'ai Village, North District, Sanfenzi, Tainan, 704, Taiwan",,
23.00337407,120.21937169,23.00337407N;120.21937169E,coordinates,20231103,"179號, Dongfeng Road, Ren'ai Village, North District, Sanfenzi, Tainan, 704, Taiwan",,
23.0207,113.7518,23.0207N;113.7518E,coordinates,20210623,"元美东路, Nancheng Subdistrict, Tangbei, Dongguan, Guangdong Province, 523015, China",,
-23.027184,-44.51813,23.027184S;44.518130W,coordinates,20210623,"Rua Antônio Peres de Oliveira Lara, Praia das Goiabas, Vila Histórica de Mambucaba, Mambucaba, Angra dos Reis, Região Geográfica Imediata de Angra dos Reis, Região Geográfica Intermediária do Rio de Janeiro, Rio de Janeiro, Southeast Region, 23955-385, Brazil",,
23.02,113.12,23.02N;113.12E,coordinates,20210623,"Zumiao Subdistrict, Chancheng District, Foshan, Guangdong Province, 528200, China",,
23.02,120.22,23.02N;120.22E,coordinates,20210623,"92號, 甲頂路, Beimen Village, Jiading Village, Yongkang District, Tainan, 710, Taiwan",,
23.053855417002893,113.24860855937,23.05385541700292N;113.24860855937004E,coordinates,20210623,"环翠南路, Dongsha, Liwan District, Guangzhou City, Guangdong Province, 510380, China",,
23.05385541,113.24860855,23.05385541N;113.24860855E,coordinates,20231103,"环翠南路, Dongsha, Liwan District, Guangzhou City, Guangdong Province, 510380, China",,
23.05486582644024,113.4059074379902,23.054865826440242;113.40590743799021,coordinates,20231103,"Suishicun, Xiaoguwei Subdistrict, Panyu District, Guangzhou City, Guangdong Province, China",,
23.06,113.15,23.06N;113.15E,coordinates,20210623,"Guilan North Road, Guicheng Subdistrict, Nanhai District, Foshan, Guangdong Province, 258251, China",,
23.08,113.14,23.08N;113.14E,coordinates,20210623,"Xincun Street, Dali, Nanhai District, Foshan, Guangdong Province, 528231, China",,
-23.096155,-46.728687,23.096155S;46.728687W,coordinates,20210623,"Avenida Vereador João Pedro Ferraz, Centro, Jarinu, Região Imediata de Jundiaí, Região Geográfica Intermediária de Campinas, São Paulo, Southeast Region, 13240-000, Brazil",,
23.09,113.28,23.09N;113.28E,coordinates,2024,"Taisha Road, Wufengcun, Fengyang, Haizhu District, Guangzhou City, Guangdong Province, 510275, China",,
23.1,109.6,23.10N;109.60E,coordinates,20210623,"Guicheng Subdistrict, Guigang, Gangbei District, Guigang, Guangxi, 537100, China",,
23.1,113.23,23.10N;113.23E,coordinates,20210623,"Huadi Avenue North, Fangcun, Huadi, Liwan District, Guangzhou City, Guangdong Province, 510370, China",,
23.1167,113.25,23.1167N;113.2500E,coordinates,20210623,"Tiancheng Road, Renmin, Yuexiu District, Guangzhou City, Guangdong Province, 510130, China",,
23.11,113.14,23.11N;113.14E,coordinates,20231103,"Guangfo Road, Dali, Nanhai District, Foshan, Guangdong Province, 528231, China",,
23.11,113.26,23.11N;113.26E,coordinates,20210623,"Tongqing Road, Baogang, Haichuang, Haizhu District, Guangzhou City, Guangdong Province, 510240, China",,
23.1291,113.2644,23.1291N;113.2644E,coordinates,20210623,"Archaeological Site Museum of Nanyue Palace, 316, Zhongshan 4th Road, Beijing, Yuexiu District, Guangzhou City, Guangdong Province, 510030, China",,
23.12,113.25,23.12N;113.25E,coordinates,20231103,"Dade Road, Guangta, Yuexiu District, Guangzhou City, Guangdong Province, 510180, China",,
23.12,113.26,23.12N;113.26E,coordinates,20210623,"广州市第十中学, 福增里, Renmin, Yuexiu District, Guangzhou City, Guangdong Province, 510115, China",,
23.12,113.28,23.12N;113.28E,coordinates,20210623,"Dashatou 2nd Road, Dashatou, Baiyun, Yuexiu District, Guangzhou City, Guangdong Province, 510100, China",,
23.12,114.42,23.12N;114.42E,coordinates,20210623,"新湖公园, 新沥路, Jiangbei Subdistrict, Huicheng District, Huizhou, Guangdong Province, 516003, China",,
23.133333,-82.366667,23.133333N;82.366667W,coordinates,20210623,"Iglesia Presbiteriana, 222, Salud, Chinatown, Los Sitios, Centro Habana, Havana, 10249, Cuba",,
23.13,113.26,23.13N;113.26E,coordinates,20210623,"Jixiang Road, Beijing, Yuexiu District, Guangzhou City, Guangdong Province, 510030, China",,
23.13,113.27,23.13N;113.27E,coordinates,20210623,"农讲所纪念馆办公室, Dezheng North Road, Datang, Yuexiu District, Guangzhou City, Guangdong Province, 510375, China",,
23.13,113.28,23.13N;113.28E,coordinates,20210623,"Dongping Damalu Road, Datang, Yuexiu District, Guangzhou City, Guangdong Province, 510100, China",,
23.13,117.19,23.13N;117.19E,coordinates,20210623,"Longhu District, Shantou, Guangdong Province, 515041, China",,
23.15,113.27,23.15N;113.27E,coordinates,20210623,"广州麓湖高尔夫球乡村俱乐部, 广园中路辅路, Jingtaikeng, Jingtai, Baiyun District, Guangzhou City, Guangdong Province, 510091, China",,
23.16,113.23,23.16N;113.23E,coordinates,20210623,"Tongde, Baiyun District, Guangzhou City, Guangdong Province, 510403, China",,
23.1795011553082,113.36090780542,23.179501155308156N;113.3609078054202E,coordinates,20210623,"中国科学院广州化学研究所, Xingke Road, Changxing, Tianhe District, Guangzhou City, Guangdong Province, 510650, China",,
23.17,112.53,23.17N;112.53E,coordinates,20210623,"Dinghu Mountain National Nature Reserve, 万福路, 万福社区, 迪村社区, 坑口街道, Dinghu District, Zhaoqing City, Guangdong Province, China",,
-23.18,-51.22,23.18S;51.22W,coordinates,20210623,"Cambé, Região Geográfica Imediata de Londrina, Região Geográfica Intermediária de Londrina, Paraná, South Region, 86105-000, Brazil",,
23.19,111.56,23.19N;111.56E,coordinates,20231103,"Luozicun, Yunan County, Yunfu City, Guangdong Province, China",,
23.19,113.33,23.19N;113.33E,coordinates,20231103,"Southern Medical University, Chanchushi North Road, Tonghe, Baiyun District, Guangzhou City, Guangdong Province, 510515, China",,
23.19,113.34,23.19N;113.34E,coordinates,20231103,"一大队军用射击队, Tianyuan Road, Yuangang, Tianhe District, Guangzhou City, Guangdong Province, 510650, China",,
23.2,113.3,23.20N;113.30E,coordinates,20210623,"Huangpodong, Huangshi, Baiyun District, Guangzhou City, Guangdong Province, 510420, China",,
-23.22,143.47,23.22000S;143.47000E,coordinates,20231103,"Longreach, Longreach Regional, Queensland, 4730, Australia",,
-23.24718202902989,-51.10788345336911,23.247182029029858S;51.10788345336914W,coordinates,20210623,"Londrina, Região Geográfica Imediata de Londrina, Região Geográfica Intermediária de Londrina, Paraná, South Region, 86087-340, Brazil",,
23.29,120.27,23.29N;120.27E,coordinates,20210623,"140之31號, Taibei Village, Taizigong, Tainan, 730, Taiwan",,
23.2,113.3,23.2N;113.3E,coordinates,20210623,"Huangpodong, Huangshi, Baiyun District, Guangzhou City, Guangdong Province, 510420, China",,
23.3,120.25,23.30N;120.25E,coordinates,20210623,"72之1號, Houliao, Wenchang Village, Yanshui District, Tainan, 737, Taiwan",,
23.3167,69.6289,23.3167N;69.6289E,coordinates,20210623,"Makanpar, Bhuj Taluka, Kachchh, Gujarat, 370030, India",,
23.31,107.58,23.31N;107.58E,coordinates,2024,"Pingguo City, Baise, Guangxi, 531400, China",,
-23.321324,-47.504833,23.321324S;47.504833W,coordinates,20231103,"Spring Valley, Porto Feliz, Região Imediata de Sorocaba, Região Metropolitana de Sorocaba, Região Geográfica Intermediária de Sorocaba, São Paulo, Southeast Region, Brazil",,
-23.32,-51.19,23.32S;51.19W,coordinates,20210623,"Rua Guiomar Sophia Panza, Central Park Residence, Palhano, Londrina, Região Geográfica Imediata de Londrina, Região Geográfica Intermediária de Londrina, Paraná, South Region, 86055-645, Brazil",,
23.3448,120.9457,23.3448N;120.9457E,coordinates,20210623,"Meishan Village, Taoyuan District, Kaohsiung, 848, Taiwan",,
23.348,90.7082,23.3480N;90.7082E,coordinates,20210623,"Matlab, Matlab Dakshin Upazila, Chandpur District, Chattogram Division, 3640, Bangladesh",,
23.34,116.54,23.34N;116.54E,coordinates,20210623,"S234, Mianbei, Chaoyang District, Shantou, Guangdong Province, China",,
23.366667,-44.933333,23.366667N;44.933333W,coordinates,2024,,,
23.39,116.69,23.39N;116.69E,coordinates,2024,"护堤路, Qishan Subdistrict, Jinping District, Shantou, Guangdong Province, 515000, China",,
23.3,120.9,23.3N;120.9E,coordinates,20210623,"Zhongzhiguan, Taoyuan District, Kaohsiung, 848, Taiwan",,
23.4,116.82,23.40N;116.82E,coordinates,20231103,"英华路, Fengxiang Subdistrict, Chenghai District, Shantou, Guangdong Province, China",,
23.42,92.51,23.42N;92.51E,coordinates,20210623,"West Phaileng, Mamit District, Mizoram, 796431, India",,
-23.4355,-48.6832,23.4355S;48.6832W,coordinates,20210623,"Paranapanema, Região Imediata de Avaré, Região Geográfica Intermediária de Sorocaba, São Paulo, Southeast Region, 18720-000, Brazil",,
23.4814,103.7797,23.4814N;103.7797E,coordinates,20210623,"Laozhai, Mengzi City, Honghe, Yunnan, China",,
23.48,120.46,23.48N;120.46E,coordinates,20210623,"Zhongzheng Road, Huanan Village, East District, Caodiwei, Chiayi, 600, Taiwan",,
-23.519427,-46.7464,23.519427S;46.746400W,coordinates,20210623,"Marginal Tietê (Expressa), Jaguara, São Paulo, Região Imediata de São Paulo, Região Metropolitana de São Paulo, Região Geográfica Intermediária de São Paulo, São Paulo, Southeast Region, 05118-100, Brazil",,
-23.530767,-46.748376,23.530767S;46.748376W,coordinates,20210623,"Ciclovia do Rio Pinheiros, Vila Hamburguesa, Vila Leopoldina, São Paulo, Região Imediata de São Paulo, Região Metropolitana de São Paulo, Região Geográfica Intermediária de São Paulo, São Paulo, Southeast Region, 05310-000, Brazil",,
-23.5342,-46.6881,23.5342S;46.6881W,coordinates,20210623,"Hospital São Camilo, 1178, Avenida Pompeia, Pompéia, Perdizes, São Paulo, Região Imediata de São Paulo, Região Metropolitana de São Paulo, Região Geográfica Intermediária de São Paulo, São Paulo, Southeast Region, 05022-001, Brazil",,
-23.5475,-46.63611,23.5475S;46.63611W,coordinates,20210623,"62, Praça do Patriarca, Glicério, Sé, São Paulo, Região Imediata de São Paulo, Região Metropolitana de São Paulo, Região Geográfica Intermediária de São Paulo, São Paulo, Southeast Region, 01002-010, Brazil",,
-23.5489,-46.6388,23.5489S;46.6388W,coordinates,20210623,"Parque Anhangabau, República, São Paulo, Região Imediata de São Paulo, Região Metropolitana de São Paulo, Região Geográfica Intermediária de São Paulo, São Paulo, Southeast Region, 01007-020, Brazil",,
-23.55,-46.6333,23.5500S;46.6333W,coordinates,20210623,"Sé Square, Rua Onze de Agosto, Glicério, Sé, São Paulo, Região Imediata de São Paulo, Região Metropolitana de São Paulo, Região Geográfica Intermediária de São Paulo, São Paulo, Southeast Region, 01018-010, Brazil",,
-23.5505,-46.6333,23.5505S;46.6333W,coordinates,20210623,"Sé Square, Rua Anita Garibaldi, Glicério, Sé, São Paulo, Região Imediata de São Paulo, Região Metropolitana de São Paulo, Região Geográfica Intermediária de São Paulo, São Paulo, Southeast Region, 01018-020, Brazil",,
-23.556174,-46.627129,23.556174S;46.627129W,coordinates,20210623,"Avenida Prefeito Passos, Aclimação, Liberdade, São Paulo, Região Imediata de São Paulo, Região Metropolitana de São Paulo, Região Geográfica Intermediária de São Paulo, São Paulo, Southeast Region, 01518-020, Brazil",,
-23.5575062,-46.6722151,23.5575062S;46.6722151W,coordinates,20210623,"Hospital das Clínicas da Faculdade de Medicina da Universidade de São Paulo, Rua Major Natanael, Pacaembu, Consolação, São Paulo, Região Imediata de São Paulo, Região Metropolitana de São Paulo, Região Geográfica Intermediária de São Paulo, São Paulo, Southeast Region, 01246-050, Brazil",,
-23.55,-46.63,23.55S;46.63W,coordinates,20231103,"Secretaria da Fazenda, 300, Avenida Rangel Pestana, Glicério, Sé, São Paulo, Região Imediata de São Paulo, Região Metropolitana de São Paulo, Região Geográfica Intermediária de São Paulo, São Paulo, Southeast Region, 01017-911, Brazil",,
-23.560035,-46.647337,23.560035S;46.64733699999999W,coordinates,20210623,"Hospital Municipal Infantil Menino Jesus, 251, Rua dos Franceses, Morro dos Ingleses, Bela Vista, São Paulo, Região Imediata de São Paulo, Região Metropolitana de São Paulo, Região Geográfica Intermediária de São Paulo, São Paulo, Southeast Region, 01329-000, Brazil",,
-23.560035,-46.64733699,23.560035S;46.64733699W,coordinates,2024,"Hospital Municipal Infantil Menino Jesus, 251, Rua dos Franceses, Morro dos Ingleses, Bela Vista, São Paulo, Região Imediata de São Paulo, Região Metropolitana de São Paulo, Região Geográfica Intermediária de São Paulo, São Paulo, Southeast Region, 01329-000, Brazil",,
-23.560035,-46.647337,23.560035S;46.647337W,coordinates,20231103,"Hospital Municipal Infantil Menino Jesus, 251, Rua dos Franceses, Morro dos Ingleses, Bela Vista, São Paulo, Região Imediata de São Paulo, Região Metropolitana de São Paulo, Região Geográfica Intermediária de São Paulo, São Paulo, Southeast Region, 01329-000, Brazil",,
-23.564392,-46.723774,23.564392S;46.723774W,coordinates,20210623,"Faculdade de Ciências Farmacêuticas, Avenida Professor Lineu Prestes, Butantã, São Paulo, Região Imediata de São Paulo, Região Metropolitana de São Paulo, Região Geográfica Intermediária de São Paulo, São Paulo, Southeast Region, 05513-900, Brazil",,
23.59,69.4445,23.590N;69.4445E,coordinates,20210623,"Bhuj Taluka, Kachchh, Gujarat, India",,
-23.5975,-46.6436,23.597500S;46.643600W,coordinates,20210623,"Hospital São Paulo, 715, Rua Napoleão de Barros, Vila Clementino, Vila Mariana, São Paulo, Região Imediata de São Paulo, Região Metropolitana de São Paulo, Região Geográfica Intermediária de São Paulo, São Paulo, Southeast Region, 04024-002, Brazil",,
-23.5975,-46.6436,23.5975S;46.6436W,coordinates,20210623,"Hospital São Paulo, 715, Rua Napoleão de Barros, Vila Clementino, Vila Mariana, São Paulo, Região Imediata de São Paulo, Região Metropolitana de São Paulo, Região Geográfica Intermediária de São Paulo, São Paulo, Southeast Region, 04024-002, Brazil",,
-23.5975,-46.6439,23.5975S;46.6439W,coordinates,20210623,"Hospital São Paulo, 715, Rua Napoleão de Barros, Vila Clementino, Vila Mariana, São Paulo, Região Imediata de São Paulo, Região Metropolitana de São Paulo, Região Geográfica Intermediária de São Paulo, São Paulo, Southeast Region, 04024-002, Brazil",,
-23.599026,-46.642875,23.599026S;46.642875W,coordinates,20210623,"Universidade Federal de São Paulo, 740, Rua Botucatu, Vila Clementino, Vila Mariana, São Paulo, Região Imediata de São Paulo, Região Metropolitana de São Paulo, Região Geográfica Intermediária de São Paulo, São Paulo, Southeast Region, 04023-062, Brazil",,
23.5,113.0,23.5N;113E,coordinates,20210623,"Shijiao, Qingcheng District, Qingyuan City, Guangdong Province, China",,
23.6345,-102.5528,23.6345N;102.5528W,coordinates,20210623,"Villa de Cos, Zacatecas, Mexico",,
-23.65084,-46.62051,23.650840S;46.620510W,coordinates,20210623,"Zoo Tickets & Entrance, Avenida Miguel Estefno, Cursino, São Paulo, Região Imediata de São Paulo, Região Metropolitana de São Paulo, Região Geográfica Intermediária de São Paulo, São Paulo, Southeast Region, 04169-000, Brazil",,
23.685,90.3563,23.6850N;90.3563E,coordinates,20210623,"Keraniganj, Keraniganj Subdistrict, Dhaka District, Dhaka Division, 1310, Bangladesh",,
